# 
# Header Description:
# 
# Version: v2.0.0.1 Platform: 9 Manufacturer: HUAWEI Model: ANE-LX1
# 
# Raw,ElapsedRealtimeMillis,TimeNanos,LeapSecond,TimeUncertaintyNanos,FullBiasNanos,BiasNanos,BiasUncertaintyNanos,DriftNanosPerSecond,DriftUncertaintyNanosPerSecond,HardwareClockDiscontinuityCount,Svid,TimeOffsetNanos,State,ReceivedSvTimeNanos,ReceivedSvTimeUncertaintyNanos,Cn0DbHz,PseudorangeRateMetersPerSecond,PseudorangeRateUncertaintyMetersPerSecond,AccumulatedDeltaRangeState,AccumulatedDeltaRangeMeters,AccumulatedDeltaRangeUncertaintyMeters,CarrierFrequencyHz,CarrierCycles,CarrierPhase,CarrierPhaseUncertainty,MultipathIndicator,SnrInDb,ConstellationType,AgcDb,CarrierFrequencyHz
# 
# Fix,Provider,Latitude,Longitude,Altitude,Speed,Accuracy,(UTC)TimeInMs
# 
# Nav,Svid,Type,Status,MessageId,Sub-messageId,Data(Bytes)
# 
NMEA,$GPGGA,113744.67,5546.2282,N,03741.3061,E,0,3,100.000,178.834,M,,M,0,*78
,-62167219199999
NMEA,$GNGSA,A,1,2,7,87,,,,,,,,,,,,,,,,,,100.000,100.000,100.000*25
,-62167219199999
NMEA,$GPGSA,A,1,2,7,,,,,,,,,,,,,,,,,,,100.000,100.000,100.000*34
,-62167219199999
NMEA,$GLGSA,A,1,87,,,,,,,,,,,,,,,,,,,,100.000,100.000,100.000*22
,-62167219199999
NMEA,$BDGSA,A,1,,,,,,,,,,,,,,,,,,,,,100.000,100.000,100.000*20
,-62167219199999
NMEA,$QZGSA,A,1,,,,,,,,,,,,,,,,,,,,,100.000,100.000,100.000*2D
,-62167219199999
NMEA,$GPGSV,7,1,28,2,25,299,18,3,21,153,,4,78,98,,6,27,253,12*42
,-62167219199999
NMEA,$GPGSV,7,2,28,7,36,213,15,9,82,262,9,16,35,81,,18,5,,*78
,-62167219199999
NMEA,$GPGSV,7,3,28,23,65,101,,26,27,50,,29,8,,,30,5,222,*76
,-62167219199999
NMEA,$GLGSV,7,4,28,70,23,122,,71,76,106,,72,47,307,,73,60,156,*69
,-62167219199999
NMEA,$GLGSV,7,5,28,80,38,42,,81,8,16,,87,16,285,16,88,21,332,*5F
,-62167219199999
NMEA,$BDGSV,7,6,28,201,5,,,202,14,197,,209,74,99,,210,,308,*5F
,-62167219199999
NMEA,$BDGSV,7,7,28,211,5,,,212,5,,,213,30,259,,214,62,153,*68
,-62167219199999
NMEA,$GPRMC,113744.67,V,5546.2282,N,03741.3061,E,0.000,0.000,301119,,E,N*00
,-62167219199999
NMEA,$GPGGA,113745.67,5546.2282,N,03741.3061,E,0,3,100.000,178.834,M,,M,0,*79
,-62167219199999
Raw,426453166,1259149084830057984,18,,-2250,-0.7119240502624962,333.564095198152,495.7573015395871,0.0,0,2,220.0,3,10206114,25,20.0,153.940602124203,0.1,0,0.0,0.0,1.57542003E9,,,,0,,1,,1.57542003E9
Raw,426453166,1259149084830057984,18,,-2250,-0.7119240502624962,333.564095198152,495.7573015395871,0.0,0,6,220.0,3,12323395,400,14.0,611.9571549003012,0.1,0,0.0,0.0,1.57542003E9,,,,0,,1,,1.57542003E9
Raw,426453166,1259149084830057984,18,,-2250,-0.7119240502624962,333.564095198152,495.7573015395871,0.0,0,7,220.0,3,13888624,25,18.0,-390.3378695016727,0.1,0,0.0,0.0,1.57542003E9,,,,0,,1,,1.57542003E9
Raw,426453167,1259149084830057984,18,,-2250,-0.7119240502624962,333.564095198152,495.7573015395871,0.0,0,9,220.0,3,1963389,400,13.0,80.369807156967,0.1,0,0.0,0.0,1.57542003E9,,,,0,,1,,1.57542003E9
Raw,426453167,1259149084830057984,18,,-2250,-0.7119240502624962,333.564095198152,495.7573015395871,0.0,0,23,220.0,33,3031595,400,17.0,732.7853266619564,0.1,0,0.0,0.0,1.60368755E9,,,,0,,3,,1.60368755E9
NMEA,$GNGSA,A,1,2,7,87,,,,,,,,,,,,,,,,,,100.000,100.000,100.000*25
,-62167219199999
NMEA,$GPGSA,A,1,2,7,,,,,,,,,,,,,,,,,,,100.000,100.000,100.000*34
,-62167219199999
NMEA,$GLGSA,A,1,87,,,,,,,,,,,,,,,,,,,,100.000,100.000,100.000*22
,-62167219199999
NMEA,$BDGSA,A,1,,,,,,,,,,,,,,,,,,,,,100.000,100.000,100.000*20
,-62167219199999
NMEA,$QZGSA,A,1,,,,,,,,,,,,,,,,,,,,,100.000,100.000,100.000*2D
,-62167219199999
NMEA,$GPGSV,7,1,28,2,25,299,18,3,21,153,,4,78,98,,6,27,253,12*42
,-62167219199999
NMEA,$GPGSV,7,2,28,7,36,213,16,9,82,262,11,16,35,81,,18,5,,*42
,-62167219199999
NMEA,$GPGSV,7,3,28,23,65,101,,26,27,50,,29,8,,,30,5,222,*76
,-62167219199999
NMEA,$GLGSV,7,4,28,70,23,122,,71,76,106,,72,47,307,,73,60,156,*69
,-62167219199999
NMEA,$GLGSV,7,5,28,80,38,42,,81,8,16,,87,16,285,15,88,21,332,*5C
,-62167219199999
NMEA,$BDGSV,7,6,28,201,5,,,202,14,197,,209,74,99,,210,,308,*5F
,-62167219199999
NMEA,$BDGSV,7,7,28,211,5,,,212,5,,,213,30,259,,214,62,153,*68
,-62167219199999
NMEA,$GPRMC,113745.67,V,5546.2282,N,03741.3061,E,0.000,0.000,301119,,E,N*01
,-62167219199999
Raw,426454186,1259149085830057984,18,,-2250,-0.7119240502624962,333.564095198152,495.7573015395871,0.0,0,2,220.0,3,10205632,25,20.0,153.71689269086346,0.1,0,0.0,0.0,1.57542003E9,,,,0,,1,,1.57542003E9
Raw,426454186,1259149085830057984,18,,-2250,-0.7119240502624962,333.564095198152,495.7573015395871,0.0,0,6,220.0,3,12321356,25,24.0,612.3574193275999,0.1,0,0.0,0.0,1.57542003E9,,,,0,,1,,1.57542003E9
Raw,426454187,1259149085830057984,18,,-2250,-0.7119240502624962,333.564095198152,495.7573015395871,0.0,0,7,220.0,3,13889953,25,18.0,-392.53767892951146,0.1,0,0.0,0.0,1.57542003E9,,,,0,,1,,1.57542003E9
Raw,426454187,1259149085830057984,18,,-2250,-0.7119240502624962,333.564095198152,495.7573015395871,0.0,0,9,220.0,3,1963116,400,13.0,80.69440515828319,0.1,0,0.0,0.0,1.57542003E9,,,,0,,1,,1.57542003E9
Raw,426454187,1259149085830057984,18,,-2250,-0.7119240502624962,333.564095198152,495.7573015395871,0.0,0,23,220.0,33,3029159,400,14.0,732.001089026548,0.1,0,0.0,0.0,1.60368755E9,,,,0,,3,,1.60368755E9
NMEA,$GPGGA,113746.68,5546.2282,N,03741.3061,E,0,3,100.000,178.834,M,,M,0,*75
,-62167219199998
NMEA,$GNGSA,A,1,2,6,7,,,,,,,,,,,,,,,,,,100.000,100.000,100.000*1C
,-62167219199998
NMEA,$GPGSA,A,1,2,6,7,,,,,,,,,,,,,,,,,,100.000,100.000,100.000*02
,-62167219199998
NMEA,$GLGSA,A,1,,,,,,,,,,,,,,,,,,,,,100.000,100.000,100.000*2D
,-62167219199998
NMEA,$BDGSA,A,1,,,,,,,,,,,,,,,,,,,,,100.000,100.000,100.000*20
,-62167219199998
NMEA,$QZGSA,A,1,,,,,,,,,,,,,,,,,,,,,100.000,100.000,100.000*2D
,-62167219199998
NMEA,$GPGSV,7,1,28,2,25,299,18,3,21,153,,4,78,98,,6,27,253,22*41
,-62167219199998
NMEA,$GPGSV,7,2,28,7,36,213,16,9,82,262,11,16,35,81,,18,5,,*42
,-62167219199998
NMEA,$GPGSV,7,3,28,23,65,101,,26,27,50,,29,8,,,30,5,222,*76
,-62167219199998
NMEA,$GLGSV,7,4,28,70,23,122,,71,76,106,,72,47,307,,73,60,156,*69
,-62167219199998
NMEA,$GLGSV,7,5,28,80,38,42,,81,8,16,,87,16,285,12,88,21,332,*5B
,-62167219199998
NMEA,$BDGSV,7,6,28,201,5,,,202,14,197,,209,74,99,,210,,308,*5F
,-62167219199998
NMEA,$BDGSV,7,7,28,211,5,,,212,5,,,213,30,259,,214,62,153,*68
,-62167219199998
NMEA,$GPRMC,113746.68,V,5546.2282,N,03741.3061,E,0.000,0.000,301119,,E,N*0D
,-62167219199998
Raw,426455429,1259149086830057984,18,,-2250,-0.7119240502624962,333.564095198152,495.7573015395871,0.0,0,2,220.0,16399,560286750205097,10,30.0,153.83203725214116,0.1,0,0.0,0.0,1.57542003E9,,,,0,,1,,1.57542003E9
Raw,426455429,1259149086830057984,18,,-2250,-0.7119240502624962,333.564095198152,495.7573015395871,0.0,0,6,220.0,3,12319327,10,33.0,613.0417070060503,0.1,0,0.0,0.0,1.57542003E9,,,,0,,1,,1.57542003E9
Raw,426455430,1259149086830057984,18,,-2250,-0.7119240502624962,333.564095198152,495.7573015395871,0.0,0,7,220.0,3,13891264,25,19.0,-393.06405406678095,0.1,0,0.0,0.0,1.57542003E9,,,,0,,1,,1.57542003E9
Raw,426455431,1259149086830057984,18,,-2250,-0.7119240502624962,333.564095198152,495.7573015395871,0.0,0,9,220.0,3,1962834,400,15.0,80.88521614554338,0.1,0,0.0,0.0,1.57542003E9,,,,0,,1,,1.57542003E9
Raw,426455431,1259149086830057984,18,,-2250,-0.7119240502624962,333.564095198152,495.7573015395871,0.0,0,23,220.0,33,3026704,400,15.0,733.3483690668651,0.1,0,0.0,0.0,1.60368755E9,,,,0,,3,,1.60368755E9
NMEA,$GPGGA,113747.68,5546.2282,N,03741.3061,E,0,3,100.000,178.834,M,,M,0,*74
,-62167219199997
NMEA,$GNGSA,A,1,2,6,7,,,,,,,,,,,,,,,,,,100.000,100.000,100.000*1C
,-62167219199997
NMEA,$GPGSA,A,1,2,6,7,,,,,,,,,,,,,,,,,,100.000,100.000,100.000*02
,-62167219199997
NMEA,$GLGSA,A,1,,,,,,,,,,,,,,,,,,,,,100.000,100.000,100.000*2D
,-62167219199997
NMEA,$BDGSA,A,1,,,,,,,,,,,,,,,,,,,,,100.000,100.000,100.000*20
,-62167219199997
NMEA,$QZGSA,A,1,,,,,,,,,,,,,,,,,,,,,100.000,100.000,100.000*2D
,-62167219199997
NMEA,$GPGSV,7,1,28,2,25,299,28,3,21,153,,4,78,98,,6,27,253,31*40
,-62167219199997
NMEA,$GPGSV,7,2,28,7,36,213,17,9,82,262,13,16,35,81,,18,5,,*41
,-62167219199997
NMEA,$GPGSV,7,3,28,23,65,101,,26,27,50,,29,8,,,30,5,222,*76
,-62167219199997
NMEA,$GLGSV,7,4,28,70,23,122,,71,76,106,,72,47,307,,73,60,156,*69
,-62167219199997
NMEA,$GLGSV,7,5,28,80,38,42,,81,8,16,,87,16,285,13,88,21,332,*5A
,-62167219199997
NMEA,$BDGSV,7,6,28,201,5,,,202,14,197,,209,74,99,,210,,308,*5F
,-62167219199997
NMEA,$BDGSV,7,7,28,211,5,,,212,5,,,213,30,259,,214,62,153,*68
,-62167219199997
NMEA,$GPRMC,113747.68,V,5546.2282,N,03741.3061,E,0.000,0.000,301119,,E,N*0C
,-62167219199997
Raw,426456181,1259149087830057984,18,,-2250,-0.7119240502624962,333.564095198152,495.7573015395871,0.0,0,2,220.0,16399,560287750204560,10,28.0,154.2191423010081,0.1,0,0.0,0.0,1.57542003E9,,,,0,,1,,1.57542003E9
Raw,426456181,1259149087830057984,18,,-2250,-0.7119240502624962,333.564095198152,495.7573015395871,0.0,0,6,220.0,3,12317289,25,22.0,613.3992034534458,0.1,0,0.0,0.0,1.57542003E9,,,,0,,1,,1.57542003E9
Raw,426456181,1259149087830057984,18,,-2250,-0.7119240502624962,333.564095198152,495.7573015395871,0.0,0,7,220.0,3,13892581,25,19.0,-392.261331982445,0.1,0,0.0,0.0,1.57542003E9,,,,0,,1,,1.57542003E9
Raw,426456182,1259149087830057984,18,,-2250,-0.7119240502624962,333.564095198152,495.7573015395871,0.0,0,9,220.0,3,1962556,400,15.0,81.6429770202376,0.1,0,0.0,0.0,1.57542003E9,,,,0,,1,,1.57542003E9
Raw,426456182,1259149087830057984,18,,-2250,-0.7119240502624962,333.564095198152,495.7573015395871,0.0,0,23,220.0,33,3024226,400,17.0,734.9829156402989,0.1,0,0.0,0.0,1.60368755E9,,,,0,,3,,1.60368755E9
NMEA,$GPGGA,113748.67,5546.2282,N,03741.3061,E,0,3,100.000,178.834,M,,M,0,*74
,-62167219199999
NMEA,$GNGSA,A,1,2,6,7,,,,,,,,,,,,,,,,,,100.000,100.000,100.000*1C
,-62167219199999
NMEA,$GPGSA,A,1,2,6,7,,,,,,,,,,,,,,,,,,100.000,100.000,100.000*02
,-62167219199999
NMEA,$GLGSA,A,1,,,,,,,,,,,,,,,,,,,,,100.000,100.000,100.000*2D
,-62167219199999
NMEA,$BDGSA,A,1,,,,,,,,,,,,,,,,,,,,,100.000,100.000,100.000*20
,-62167219199999
NMEA,$QZGSA,A,1,,,,,,,,,,,,,,,,,,,,,100.000,100.000,100.000*2D
,-62167219199999
NMEA,$GPGSV,7,1,28,2,25,299,26,3,21,153,,4,78,98,,6,27,253,20*4E
,-62167219199999
NMEA,$GPGSV,7,2,28,7,36,213,17,9,82,262,13,16,35,81,,18,5,,*41
,-62167219199999
NMEA,$GPGSV,7,3,28,23,65,101,,26,27,50,,29,8,,,30,5,222,*76
,-62167219199999
NMEA,$GLGSV,7,4,28,70,23,122,,71,76,106,,72,47,307,,73,60,156,*69
,-62167219199999
NMEA,$GLGSV,7,5,28,80,38,42,,81,8,16,,87,16,285,15,88,21,332,*5C
,-62167219199999
NMEA,$BDGSV,7,6,28,201,5,,,202,14,197,,209,74,99,,210,,308,*5F
,-62167219199999
NMEA,$BDGSV,7,7,28,211,5,,,212,5,,,213,30,259,,214,62,153,*68
,-62167219199999
NMEA,$GPRMC,113748.67,V,5546.2282,N,03741.3061,E,0.000,0.000,301119,,E,N*0C
,-62167219199999
NMEA,$GPGGA,113749.67,5546.2282,N,03741.3061,E,0,4,100.000,178.834,M,,M,0,*72
,-62167219199998
Raw,426457162,1259149088830057984,18,,-2250,-0.7119240502624962,333.564095198152,495.7573015395871,0.0,0,2,220.0,3,10204024,25,23.0,154.17747093597427,0.1,0,0.0,0.0,1.57542003E9,,,,0,,1,,1.57542003E9
Raw,426457163,1259149088830057984,18,,-2250,-0.7119240502624962,333.564095198152,495.7573015395871,0.0,0,6,220.0,3,12315256,25,21.0,613.9935687126126,0.1,0,0.0,0.0,1.57542003E9,,,,0,,1,,1.57542003E9
Raw,426457163,1259149088830057984,18,,-2250,-0.7119240502624962,333.564095198152,495.7573015395871,0.0,0,7,220.0,3,13893885,25,20.0,-391.56827138504013,0.1,0,0.0,0.0,1.57542003E9,,,,0,,1,,1.57542003E9
Raw,426457164,1259149088830057984,18,,-2250,-0.7119240502624962,333.564095198152,495.7573015395871,0.0,0,9,220.0,3,1962276,400,14.0,81.92261381191202,0.1,0,0.0,0.0,1.57542003E9,,,,0,,1,,1.57542003E9
Raw,426457164,1259149088830057984,18,,-2250,-0.7119240502624962,333.564095198152,495.7573015395871,0.0,0,23,220.0,33,3021774,400,17.0,735.7470446183892,0.1,0,0.0,0.0,1.60368755E9,,,,0,,3,,1.60368755E9
NMEA,$GNGSA,A,1,2,6,7,87,,,,,,,,,,,,,,,,,100.000,100.000,100.000*13
,-62167219199998
NMEA,$GPGSA,A,1,2,6,7,,,,,,,,,,,,,,,,,,100.000,100.000,100.000*02
,-62167219199998
NMEA,$GLGSA,A,1,87,,,,,,,,,,,,,,,,,,,,100.000,100.000,100.000*22
,-62167219199998
NMEA,$BDGSA,A,1,,,,,,,,,,,,,,,,,,,,,100.000,100.000,100.000*20
,-62167219199998
NMEA,$QZGSA,A,1,,,,,,,,,,,,,,,,,,,,,100.000,100.000,100.000*2D
,-62167219199998
NMEA,$GPGSV,7,1,28,2,25,299,21,3,21,153,,4,78,98,,6,27,253,19*43
,-62167219199998
NMEA,$GPGSV,7,2,28,7,36,213,18,9,82,262,12,16,35,81,,18,5,,*4F
,-62167219199998
NMEA,$GPGSV,7,3,28,23,65,101,,26,27,50,,29,8,,,30,5,222,*76
,-62167219199998
NMEA,$GLGSV,7,4,28,70,23,122,,71,76,106,,72,47,307,,73,60,156,*69
,-62167219199998
NMEA,$GLGSV,7,5,28,80,38,42,,81,8,16,,87,16,285,15,88,21,332,*5C
,-62167219199998
NMEA,$BDGSV,7,6,28,201,5,,,202,14,197,,209,74,99,,210,,308,*5F
,-62167219199998
NMEA,$BDGSV,7,7,28,211,5,,,212,5,,,213,30,259,,214,62,153,*68
,-62167219199998
NMEA,$GPRMC,113749.67,V,5546.2282,N,03741.3061,E,0.000,0.000,301119,,E,N*0D
,-62167219199998
NMEA,$GPGGA,113750.67,5546.2282,N,03741.3061,E,0,4,100.000,178.834,M,,M,0,*7A
,-62167219199998
Raw,426458155,1259149089830057984,18,,-2250,-0.7119240502624962,333.564095198152,495.7573015395871,0.0,0,2,220.0,16399,560289750203497,25,27.0,154.31235456489958,0.1,0,0.0,0.0,1.57542003E9,,,,0,,1,,1.57542003E9
Raw,426458155,1259149089830057984,18,,-2250,-0.7119240502624962,333.564095198152,495.7573015395871,0.0,0,6,220.0,3,12313222,25,19.0,614.1361286456231,0.1,0,0.0,0.0,1.57542003E9,,,,0,,1,,1.57542003E9
Raw,426458156,1259149089830057984,18,,-2250,-0.7119240502624962,333.564095198152,495.7573015395871,0.0,0,7,220.0,3,13895177,25,20.0,-392.2185640025418,0.1,0,0.0,0.0,1.57542003E9,,,,0,,1,,1.57542003E9
Raw,426458156,1259149089830057984,18,,-2250,-0.7119240502624962,333.564095198152,495.7573015395871,0.0,0,9,220.0,3,1961994,400,14.0,82.23185920505784,0.1,0,0.0,0.0,1.57542003E9,,,,0,,1,,1.57542003E9
Raw,426458156,1259149089830057984,18,,-2250,-0.7119240502624962,333.564095198152,495.7573015395871,0.0,0,23,220.0,33,3019312,25,18.0,737.8785622941149,0.1,0,0.0,0.0,1.60368755E9,,,,0,,3,,1.60368755E9
NMEA,$GNGSA,A,1,2,6,7,87,,,,,,,,,,,,,,,,,100.000,100.000,100.000*13
,-62167219199998
NMEA,$GPGSA,A,1,2,6,7,,,,,,,,,,,,,,,,,,100.000,100.000,100.000*02
,-62167219199998
NMEA,$GLGSA,A,1,87,,,,,,,,,,,,,,,,,,,,100.000,100.000,100.000*22
,-62167219199998
NMEA,$BDGSA,A,1,,,,,,,,,,,,,,,,,,,,,100.000,100.000,100.000*20
,-62167219199998
NMEA,$QZGSA,A,1,,,,,,,,,,,,,,,,,,,,,100.000,100.000,100.000*2D
,-62167219199998
NMEA,$GPGSV,7,1,28,2,25,299,25,3,21,153,,4,78,98,,6,27,253,17*49
,-62167219199998
NMEA,$GPGSV,7,2,28,7,36,213,18,9,82,262,12,16,35,81,,18,5,,*4F
,-62167219199998
NMEA,$GPGSV,7,3,28,23,65,101,,26,27,50,,29,8,,,30,5,222,*76
,-62167219199998
NMEA,$GLGSV,7,4,28,70,23,122,,71,76,106,,72,47,307,,73,60,156,*69
,-62167219199998
NMEA,$GLGSV,7,5,28,80,38,42,,81,8,16,,87,16,285,16,88,21,332,*5F
,-62167219199998
NMEA,$BDGSV,7,6,28,201,5,,,202,14,197,,209,74,99,,210,,308,*5F
,-62167219199998
NMEA,$BDGSV,7,7,28,211,5,,,212,5,,,213,30,259,,214,62,153,*68
,-62167219199998
NMEA,$GPRMC,113750.67,V,5546.2282,N,03741.3061,E,0.000,0.000,301119,,E,N*05
,-62167219199998
NMEA,$GPGGA,113751.68,5546.2282,N,03741.3061,E,0,4,100.000,178.834,M,,M,0,*74
,-62167219199997
Raw,426459184,1259149090830057984,18,,-2250,-0.7119240502624962,333.564095198152,495.7573015395871,0.0,0,2,220.0,3,10202973,25,24.0,154.25423397682607,0.1,0,0.0,0.0,1.57542003E9,,,,0,,1,,1.57542003E9
Raw,426459184,1259149090830057984,18,,-2250,-0.7119240502624962,333.564095198152,495.7573015395871,0.0,0,6,220.0,3,12311185,25,21.0,614.49143186328,0.1,0,0.0,0.0,1.57542003E9,,,,0,,1,,1.57542003E9
Raw,426459185,1259149090830057984,18,,-2250,-0.7119240502624962,333.564095198152,495.7573015395871,0.0,0,7,220.0,3,13896485,25,21.0,-391.9213813729584,0.1,0,0.0,0.0,1.57542003E9,,,,0,,1,,1.57542003E9
Raw,426459185,1259149090830057984,18,,-2250,-0.7119240502624962,333.564095198152,495.7573015395871,0.0,0,9,220.0,3,1961709,400,13.0,82.81306508579291,0.1,0,0.0,0.0,1.57542003E9,,,,0,,1,,1.57542003E9
Raw,426459185,1259149090830057984,18,,-2250,-0.7119240502624962,333.564095198152,495.7573015395871,0.0,0,23,220.0,33,3016837,25,18.0,736.2325250593564,0.1,0,0.0,0.0,1.60368755E9,,,,0,,3,,1.60368755E9
NMEA,$GNGSA,A,1,2,6,7,87,,,,,,,,,,,,,,,,,100.000,100.000,100.000*13
,-62167219199997
NMEA,$GPGSA,A,1,2,6,7,,,,,,,,,,,,,,,,,,100.000,100.000,100.000*02
,-62167219199997
NMEA,$GLGSA,A,1,87,,,,,,,,,,,,,,,,,,,,100.000,100.000,100.000*22
,-62167219199997
NMEA,$BDGSA,A,1,,,,,,,,,,,,,,,,,,,,,100.000,100.000,100.000*20
,-62167219199997
NMEA,$QZGSA,A,1,,,,,,,,,,,,,,,,,,,,,100.000,100.000,100.000*2D
,-62167219199997
NMEA,$GPGSV,7,1,28,2,25,299,22,3,21,153,,4,78,98,,6,27,253,19*40
,-62167219199997
NMEA,$GPGSV,7,2,28,7,36,213,19,9,82,262,11,16,35,81,,18,5,,*4D
,-62167219199997
NMEA,$GPGSV,7,3,28,23,65,101,,26,27,50,,29,8,,,30,5,222,*76
,-62167219199997
NMEA,$GLGSV,7,4,28,70,23,122,,71,76,106,,72,47,307,,73,60,156,*69
,-62167219199997
NMEA,$GLGSV,7,5,28,80,38,42,,81,8,16,,87,16,285,16,88,21,332,*5F
,-62167219199997
NMEA,$BDGSV,7,6,28,201,5,,,202,14,197,,209,74,99,,210,,308,*5F
,-62167219199997
NMEA,$BDGSV,7,7,28,211,5,,,212,5,,,213,30,259,,214,62,153,*68
,-62167219199997
NMEA,$GPRMC,113751.68,V,5546.2282,N,03741.3061,E,0.000,0.000,301119,,E,N*0B
,-62167219199997
NMEA,$GPGGA,113752.68,5546.2282,N,03741.3061,E,0,3,100.000,178.834,M,,M,0,*70
,-62167219199997
Raw,426460182,1259149091830057984,18,,-2250,-0.7119240502624962,333.564095198152,495.7573015395871,0.0,0,2,220.0,16399,560291750202449,25,25.0,154.39240745035931,0.1,0,0.0,0.0,1.57542003E9,,,,0,,1,,1.57542003E9
Raw,426460182,1259149091830057984,18,,-2250,-0.7119240502624962,333.564095198152,495.7573015395871,0.0,0,6,220.0,3,12309141,25,18.0,614.7337837493978,0.1,0,0.0,0.0,1.57542003E9,,,,0,,1,,1.57542003E9
Raw,426460183,1259149091830057984,18,,-2250,-0.7119240502624962,333.564095198152,495.7573015395871,0.0,0,7,220.0,3,13897826,25,20.0,-391.2699921405874,0.1,0,0.0,0.0,1.57542003E9,,,,0,,1,,1.57542003E9
Raw,426460183,1259149091830057984,18,,-2250,-0.7119240502624962,333.564095198152,495.7573015395871,0.0,0,9,220.0,3,1961436,400,11.0,83.1376630871091,0.1,0,0.0,0.0,1.57542003E9,,,,0,,1,,1.57542003E9
Raw,426460183,1259149091830057984,18,,-2250,-0.7119240502624962,333.564095198152,495.7573015395871,0.0,0,23,220.0,33,3014406,400,17.0,736.1377271034279,0.1,0,0.0,0.0,1.60368755E9,,,,0,,3,,1.60368755E9
NMEA,$GNGSA,A,1,2,6,7,,,,,,,,,,,,,,,,,,100.000,100.000,100.000*1C
,-62167219199997
NMEA,$GPGSA,A,1,2,6,7,,,,,,,,,,,,,,,,,,100.000,100.000,100.000*02
,-62167219199997
NMEA,$GLGSA,A,1,,,,,,,,,,,,,,,,,,,,,100.000,100.000,100.000*2D
,-62167219199997
NMEA,$BDGSA,A,1,,,,,,,,,,,,,,,,,,,,,100.000,100.000,100.000*20
,-62167219199997
NMEA,$QZGSA,A,1,,,,,,,,,,,,,,,,,,,,,100.000,100.000,100.000*2D
,-62167219199997
NMEA,$GPGSV,7,1,28,2,25,299,23,3,21,153,,4,78,98,,6,27,253,16*4E
,-62167219199997
NMEA,$GPGSV,7,2,28,7,36,213,18,9,82,262,9,16,35,81,,18,5,,*75
,-62167219199997
NMEA,$GPGSV,7,3,28,23,65,101,,26,27,50,,29,8,,,30,5,222,*76
,-62167219199997
NMEA,$GLGSV,7,4,28,70,23,122,,71,76,106,,72,47,307,,73,60,156,*69
,-62167219199997
NMEA,$GLGSV,7,5,28,80,38,42,,81,8,16,,87,16,285,15,88,21,332,*5C
,-62167219199997
NMEA,$BDGSV,7,6,28,201,5,,,202,14,197,,209,74,99,,210,,308,*5F
,-62167219199997
NMEA,$BDGSV,7,7,28,211,5,,,212,5,,,213,30,259,,214,62,153,*68
,-62167219199997
NMEA,$GPRMC,113752.68,V,5546.2282,N,03741.3061,E,0.000,0.000,301119,,E,N*08
,-62167219199997
Raw,426461360,1259149092830057984,18,,-2250,-0.7119240502624962,333.564095198152,495.7573015395871,0.0,0,2,220.0,3,10201929,25,25.0,154.54264368745498,0.1,0,0.0,0.0,1.57542003E9,,,,0,,1,,1.57542003E9
Raw,426461361,1259149092830057984,18,,-2250,-0.7119240502624962,333.564095198152,495.7573015395871,0.0,0,6,220.0,3,12307105,400,16.0,614.9761356355157,0.1,0,0.0,0.0,1.57542003E9,,,,0,,1,,1.57542003E9
Raw,426461362,1259149092830057984,18,,-2250,-0.7119240502624962,333.564095198152,495.7573015395871,0.0,0,7,220.0,3,13899156,25,19.0,-391.81829957524315,0.1,0,0.0,0.0,1.57542003E9,,,,0,,1,,1.57542003E9
Raw,426461363,1259149092830057984,18,,-2250,-0.7119240502624962,333.564095198152,495.7573015395871,0.0,0,9,220.0,3,1961156,400,10.0,83.82085415069014,0.1,0,0.0,0.0,1.57542003E9,,,,0,,1,,1.57542003E9
Raw,426461364,1259149092830057984,18,,-2250,-0.7119240502624962,333.564095198152,495.7573015395871,0.0,0,23,220.0,33,3011940,400,15.0,735.951003856902,0.1,0,0.0,0.0,1.60368755E9,,,,0,,3,,1.60368755E9
NMEA,$GPGGA,113753.68,5546.2282,N,03741.3061,E,0,3,100.000,178.834,M,,M,0,*71
,-62167219199997
NMEA,$GNGSA,A,1,2,6,7,,,,,,,,,,,,,,,,,,100.000,100.000,100.000*1C
,-62167219199997
NMEA,$GPGSA,A,1,2,6,7,,,,,,,,,,,,,,,,,,100.000,100.000,100.000*02
,-62167219199997
NMEA,$GLGSA,A,1,,,,,,,,,,,,,,,,,,,,,100.000,100.000,100.000*2D
,-62167219199997
NMEA,$BDGSA,A,1,,,,,,,,,,,,,,,,,,,,,100.000,100.000,100.000*20
,-62167219199997
NMEA,$QZGSA,A,1,,,,,,,,,,,,,,,,,,,,,100.000,100.000,100.000*2D
,-62167219199997
NMEA,$GPGSV,7,1,28,2,25,299,23,3,21,153,,4,78,98,,6,27,253,14*4C
,-62167219199997
NMEA,$GPGSV,7,2,28,7,36,213,17,9,82,262,8,16,35,81,,18,5,,*7B
,-62167219199997
NMEA,$GPGSV,7,3,28,23,65,101,,26,27,50,,29,8,,,30,5,222,*76
,-62167219199997
NMEA,$GLGSV,7,4,28,70,23,122,,71,76,106,,72,47,307,,73,60,156,*69
,-62167219199997
NMEA,$GLGSV,7,5,28,80,38,42,,81,8,16,,87,16,285,13,88,21,332,*5A
,-62167219199997
NMEA,$BDGSV,7,6,28,201,5,,,202,14,197,,209,74,99,,210,,308,*5F
,-62167219199997
NMEA,$BDGSV,7,7,28,211,5,,,212,5,,,213,30,259,,214,62,153,*68
,-62167219199997
NMEA,$GPRMC,113753.68,V,5546.2282,N,03741.3061,E,0.000,0.000,301119,,E,N*09
,-62167219199997
Raw,426462200,1259149093830057984,18,,-2250,-0.7119240502624962,333.564095198152,495.7573015395871,0.0,0,2,220.0,3,10201405,25,25.0,154.8025414114818,0.1,0,0.0,0.0,1.57542003E9,,,,0,,1,,1.57542003E9
Raw,426462201,1259149093830057984,18,,-2250,-0.7119240502624962,333.564095198152,495.7573015395871,0.0,0,6,220.0,3,12305052,400,16.0,615.0178070005495,0.1,0,0.0,0.0,1.57542003E9,,,,0,,1,,1.57542003E9
Raw,426462201,1259149093830057984,18,,-2250,-0.7119240502624962,333.564095198152,495.7573015395871,0.0,0,7,220.0,3,13900464,25,18.0,-390.38392732618377,0.1,0,0.0,0.0,1.57542003E9,,,,0,,1,,1.57542003E9
Raw,426462201,1259149093830057984,18,,-2250,-0.7119240502624962,333.564095198152,495.7573015395871,0.0,0,9,220.0,3,1960870,400,10.0,84.12242323975079,0.1,0,0.0,0.0,1.57542003E9,,,,0,,1,,1.57542003E9
Raw,426462202,1259149093830057984,18,,-2250,-0.7119240502624962,333.564095198152,495.7573015395871,0.0,0,23,220.0,33,3009486,400,16.0,734.3825285860851,0.1,0,0.0,0.0,1.60368755E9,,,,0,,3,,1.60368755E9
NMEA,$GPGGA,113754.68,5546.2282,N,03741.3061,E,0,4,100.000,178.834,M,,M,0,*71
,-62167219199997
NMEA,$GNGSA,A,1,2,6,7,87,,,,,,,,,,,,,,,,,100.000,100.000,100.000*13
,-62167219199997
NMEA,$GPGSA,A,1,2,6,7,,,,,,,,,,,,,,,,,,100.000,100.000,100.000*02
,-62167219199997
NMEA,$GLGSA,A,1,87,,,,,,,,,,,,,,,,,,,,100.000,100.000,100.000*22
,-62167219199997
NMEA,$BDGSA,A,1,,,,,,,,,,,,,,,,,,,,,100.000,100.000,100.000*20
,-62167219199997
NMEA,$QZGSA,A,1,,,,,,,,,,,,,,,,,,,,,100.000,100.000,100.000*2D
,-62167219199997
NMEA,$GPGSV,7,1,28,2,25,299,23,3,21,153,,4,78,98,,6,27,253,14*4C
,-62167219199997
NMEA,$GPGSV,7,2,28,7,36,213,16,9,82,262,8,16,35,81,,18,5,,*7A
,-62167219199997
NMEA,$GPGSV,7,3,28,23,65,101,,26,27,50,,29,8,,,30,5,222,*76
,-62167219199997
NMEA,$GLGSV,7,4,28,70,23,122,,71,76,106,,72,47,307,,73,60,156,*69
,-62167219199997
NMEA,$GLGSV,7,5,28,80,38,42,,81,8,16,,87,16,285,14,88,21,332,*5D
,-62167219199997
NMEA,$BDGSV,7,6,28,201,5,,,202,14,197,,209,74,99,,210,,308,*5F
,-62167219199997
NMEA,$BDGSV,7,7,28,211,5,,,212,5,,,213,30,259,,214,62,153,*68
,-62167219199997
NMEA,$GPRMC,113754.68,V,5546.2282,N,03741.3061,E,0.000,0.000,301119,,E,N*0E
,-62167219199997
NMEA,$GPGGA,113755.68,5546.2282,N,03741.3061,E,0,3,100.000,178.834,M,,M,0,*77
,-62167219199998
Raw,426463167,1259149094830057984,18,,-2250,-0.7119240502624962,333.564095198152,495.7573015395871,0.0,0,2,220.0,3,10200884,25,25.0,155.68202653666958,0.1,0,0.0,0.0,1.57542003E9,,,,0,,1,,1.57542003E9
Raw,426463167,1259149094830057984,18,,-2250,-0.7119240502624962,333.564095198152,495.7573015395871,0.0,0,6,220.0,3,12303012,400,17.0,615.2119078324176,0.1,0,0.0,0.0,1.57542003E9,,,,0,,1,,1.57542003E9
Raw,426463168,1259149094830057984,18,,-2250,-0.7119240502624962,333.564095198152,495.7573015395871,0.0,0,7,220.0,3,13901760,400,17.0,-392.1132889750879,0.1,0,0.0,0.0,1.57542003E9,,,,0,,1,,1.57542003E9
Raw,426463168,1259149094830057984,18,,-2250,-0.7119240502624962,333.564095198152,495.7573015395871,0.0,0,9,220.0,3,1960585,400,10.0,83.94806147553027,0.1,0,0.0,0.0,1.57542003E9,,,,0,,1,,1.57542003E9
Raw,426463168,1259149094830057984,18,,-2250,-0.7119240502624962,333.564095198152,495.7573015395871,0.0,0,23,220.0,33,3007048,400,15.0,734.8909903497016,0.1,0,0.0,0.0,1.60368755E9,,,,0,,3,,1.60368755E9
NMEA,$GNGSA,A,1,2,6,7,,,,,,,,,,,,,,,,,,100.000,100.000,100.000*1C
,-62167219199998
NMEA,$GPGSA,A,1,2,6,7,,,,,,,,,,,,,,,,,,100.000,100.000,100.000*02
,-62167219199998
NMEA,$GLGSA,A,1,,,,,,,,,,,,,,,,,,,,,100.000,100.000,100.000*2D
,-62167219199998
NMEA,$BDGSA,A,1,,,,,,,,,,,,,,,,,,,,,100.000,100.000,100.000*20
,-62167219199998
NMEA,$QZGSA,A,1,,,,,,,,,,,,,,,,,,,,,100.000,100.000,100.000*2D
,-62167219199998
NMEA,$GPGSV,7,1,28,2,25,299,23,3,21,153,,4,78,98,,6,27,253,15*4D
,-62167219199998
NMEA,$GPGSV,7,2,28,7,36,213,15,9,82,262,8,16,35,81,,18,5,,*79
,-62167219199998
NMEA,$GPGSV,7,3,28,23,65,101,,26,27,50,,29,8,,,30,5,222,*76
,-62167219199998
NMEA,$GLGSV,7,4,28,70,23,122,,71,76,106,,72,47,307,,73,60,156,*69
,-62167219199998
NMEA,$GLGSV,7,5,28,80,38,42,,81,8,16,,87,16,285,13,88,21,332,*5A
,-62167219199998
NMEA,$BDGSV,7,6,28,201,5,,,202,14,197,,209,74,99,,210,,308,*5F
,-62167219199998
NMEA,$BDGSV,7,7,28,211,5,,,212,5,,,213,30,259,,214,62,153,*68
,-62167219199998
NMEA,$GPRMC,113755.68,V,5546.2282,N,03741.3061,E,0.000,0.000,301119,,E,N*0F
,-62167219199998
NMEA,$GPGGA,113756.68,5546.2282,N,03741.3061,E,0,1,100.000,178.834,M,,M,0,*76
,-62167219199998
Raw,426464179,1259149095830057984,18,,-2250,-0.7119240502624962,333.564095198152,495.7573015395871,0.0,0,2,220.0,3,10200372,25,24.0,155.8936732064467,0.1,0,0.0,0.0,1.57542003E9,,,,0,,1,,1.57542003E9
Raw,426464180,1259149095830057984,18,,-2250,-0.7119240502624962,333.564095198152,495.7573015395871,0.0,0,6,220.0,3,12300972,400,16.0,615.0594783655833,0.1,0,0.0,0.0,1.57542003E9,,,,0,,1,,1.57542003E9
Raw,426464180,1259149095830057984,18,,-2250,-0.7119240502624962,333.564095198152,495.7573015395871,0.0,0,7,220.0,3,13903068,400,16.0,-391.4476437494159,0.1,0,0.0,0.0,1.57542003E9,,,,0,,1,,1.57542003E9
Raw,426464181,1259149095830057984,18,,-2250,-0.7119240502624962,333.564095198152,495.7573015395871,0.0,0,9,220.0,3,1960301,400,10.0,83.98315315134823,0.1,0,0.0,0.0,1.57542003E9,,,,0,,1,,1.57542003E9
Raw,426464181,1259149095830057984,18,,-2250,-0.7119240502624962,333.564095198152,495.7573015395871,0.0,0,23,220.0,33,3004610,400,15.0,734.796192393773,0.1,0,0.0,0.0,1.60368755E9,,,,0,,3,,1.60368755E9
NMEA,$GNGSA,A,1,2,,,,,,,,,,,,,,,,,,,,100.000,100.000,100.000*1D
,-62167219199998
NMEA,$GPGSA,A,1,2,,,,,,,,,,,,,,,,,,,,100.000,100.000,100.000*03
,-62167219199998
NMEA,$GLGSA,A,1,,,,,,,,,,,,,,,,,,,,,100.000,100.000,100.000*2D
,-62167219199998
NMEA,$BDGSA,A,1,,,,,,,,,,,,,,,,,,,,,100.000,100.000,100.000*20
,-62167219199998
NMEA,$QZGSA,A,1,,,,,,,,,,,,,,,,,,,,,100.000,100.000,100.000*2D
,-62167219199998
NMEA,$GPGSV,7,1,28,2,25,299,22,3,21,153,,4,78,98,,6,27,253,14*4D
,-62167219199998
NMEA,$GPGSV,7,2,28,7,36,213,14,9,82,262,8,16,35,81,,18,5,,*78
,-62167219199998
NMEA,$GPGSV,7,3,28,23,65,101,,26,27,50,,29,8,,,30,5,222,*76
,-62167219199998
NMEA,$GLGSV,7,4,28,70,23,122,,71,76,106,,72,47,307,,73,60,156,*69
,-62167219199998
NMEA,$GLGSV,7,5,28,80,38,42,,81,8,16,,87,16,285,13,88,21,332,*5A
,-62167219199998
NMEA,$BDGSV,7,6,28,201,5,,,202,14,197,,209,74,99,,210,,308,*5F
,-62167219199998
NMEA,$BDGSV,7,7,28,211,5,,,212,5,,,213,30,259,,214,62,153,*68
,-62167219199998
NMEA,$GPRMC,113756.68,V,5546.2282,N,03741.3061,E,0.000,0.000,301119,,E,N*0C
,-62167219199998
NMEA,$GPGGA,113757.68,5546.2282,N,03741.3061,E,0,4,100.000,178.834,M,,M,0,*72
,-62167219199997
Raw,426465182,1259149096830057984,18,,-2250,-0.7119240502624962,333.564095198152,495.7573015395871,0.0,0,2,220.0,3,10199843,25,27.0,155.7708523410838,0.1,0,0.0,0.0,1.57542003E9,,,,0,,1,,1.57542003E9
Raw,426465183,1259149096830057984,18,,-2250,-0.7119240502624962,333.564095198152,495.7573015395871,0.0,0,6,220.0,3,12298921,10,32.0,614.6690834721085,0.1,0,0.0,0.0,1.57542003E9,,,,0,,1,,1.57542003E9
Raw,426465183,1259149096830057984,18,,-2250,-0.7119240502624962,333.564095198152,495.7573015395871,0.0,0,7,220.0,3,13904363,25,18.0,-390.8477954159025,0.1,0,0.0,0.0,1.57542003E9,,,,0,,1,,1.57542003E9
Raw,426465183,1259149096830057984,18,,-2250,-0.7119240502624962,333.564095198152,495.7573015395871,0.0,0,9,220.0,3,1960007,400,13.0,84.27046624710783,0.1,0,0.0,0.0,1.57542003E9,,,,0,,1,,1.57542003E9
Raw,426465184,1259149096830057984,18,,-2250,-0.7119240502624962,333.564095198152,495.7573015395871,0.0,0,23,220.0,33,3002175,400,16.0,734.8881176843704,0.1,0,0.0,0.0,1.60368755E9,,,,0,,3,,1.60368755E9
NMEA,$GNGSA,A,1,2,6,7,87,,,,,,,,,,,,,,,,,100.000,100.000,100.000*13
,-62167219199997
NMEA,$GPGSA,A,1,2,6,7,,,,,,,,,,,,,,,,,,100.000,100.000,100.000*02
,-62167219199997
NMEA,$GLGSA,A,1,87,,,,,,,,,,,,,,,,,,,,100.000,100.000,100.000*22
,-62167219199997
NMEA,$BDGSA,A,1,,,,,,,,,,,,,,,,,,,,,100.000,100.000,100.000*20
,-62167219199997
NMEA,$QZGSA,A,1,,,,,,,,,,,,,,,,,,,,,100.000,100.000,100.000*2D
,-62167219199997
NMEA,$GPGSV,7,1,28,2,25,299,25,3,21,153,,4,78,98,,6,27,253,30*4C
,-62167219199997
NMEA,$GPGSV,7,2,28,7,36,213,16,9,82,262,11,16,35,81,,18,5,,*42
,-62167219199997
NMEA,$GPGSV,7,3,28,23,65,101,,26,27,50,,29,8,,,30,5,222,*76
,-62167219199997
NMEA,$GLGSV,7,4,28,70,23,122,,71,76,106,,72,47,307,,73,60,156,*69
,-62167219199997
NMEA,$GLGSV,7,5,28,80,38,42,,81,8,16,,87,16,285,14,88,21,332,*5D
,-62167219199997
NMEA,$BDGSV,7,6,28,201,5,,,202,14,197,,209,74,99,,210,,308,*5F
,-62167219199997
NMEA,$BDGSV,7,7,28,211,5,,,212,5,,,213,30,259,,214,62,153,*68
,-62167219199997
NMEA,$GPRMC,113757.68,V,5546.2282,N,03741.3061,E,0.000,0.000,301119,,E,N*0D
,-62167219199997
NMEA,$GPGGA,113758.68,5546.2282,N,03741.3061,E,0,4,100.000,178.834,M,,M,0,*7D
,-62167219199999
Raw,426466179,1259149097830057984,18,,-2250,-0.7119240502624962,333.564095198152,495.7573015395871,0.0,0,2,220.0,3,10199324,25,24.0,154.9856760946568,0.1,0,0.0,0.0,1.57542003E9,,,,0,,1,,1.57542003E9
Raw,426466180,1259149097830057984,18,,-2250,-0.7119240502624962,333.564095198152,495.7573015395871,0.0,0,6,220.0,3,12296879,10,35.0,614.5418761472683,0.1,0,0.0,0.0,1.57542003E9,,,,0,,1,,1.57542003E9
Raw,426466181,1259149097830057984,18,,-2250,-0.7119240502624962,333.564095198152,495.7573015395871,0.0,0,7,220.0,3,13905646,25,25.0,-391.37636378291063,0.1,0,0.0,0.0,1.57542003E9,,,,0,,1,,1.57542003E9
Raw,426466181,1259149097830057984,18,,-2250,-0.7119240502624962,333.564095198152,495.7573015395871,0.0,0,9,220.0,3,1959711,400,16.0,84.55997257260606,0.1,0,0.0,0.0,1.57542003E9,,,,0,,1,,1.57542003E9
Raw,426466181,1259149097830057984,18,,-2250,-0.7119240502624962,333.564095198152,495.7573015395871,0.0,0,23,220.0,33,2999751,25,18.0,735.0489869429157,0.1,0,0.0,0.0,1.60368755E9,,,,0,,3,,1.60368755E9
NMEA,$GNGSA,A,1,2,6,7,87,,,,,,,,,,,,,,,,,100.000,100.000,100.000*13
,-62167219199999
NMEA,$GPGSA,A,1,2,6,7,,,,,,,,,,,,,,,,,,100.000,100.000,100.000*02
,-62167219199999
NMEA,$GLGSA,A,1,87,,,,,,,,,,,,,,,,,,,,100.000,100.000,100.000*22
,-62167219199999
NMEA,$BDGSA,A,1,,,,,,,,,,,,,,,,,,,,,100.000,100.000,100.000*20
,-62167219199999
NMEA,$QZGSA,A,1,,,,,,,,,,,,,,,,,,,,,100.000,100.000,100.000*2D
,-62167219199999
NMEA,$GPGSV,7,1,28,2,25,299,22,3,21,153,,4,78,98,,6,27,253,33*48
,-62167219199999
NMEA,$GPGSV,7,2,28,7,36,213,23,9,82,262,14,16,35,81,,18,5,,*41
,-62167219199999
NMEA,$GPGSV,7,3,28,23,65,101,,26,27,50,,29,8,,,30,5,222,*76
,-62167219199999
NMEA,$GLGSV,7,4,28,70,23,122,,71,76,106,,72,47,307,,73,60,156,*69
,-62167219199999
NMEA,$GLGSV,7,5,28,80,38,42,,81,8,16,,87,16,285,16,88,21,332,*5F
,-62167219199999
NMEA,$BDGSV,7,6,28,201,5,,,202,14,197,,209,74,99,,210,,308,*5F
,-62167219199999
NMEA,$BDGSV,7,7,28,211,5,,,212,5,,,213,30,259,,214,62,153,*68
,-62167219199999
NMEA,$GPRMC,113758.68,V,5546.2282,N,03741.3061,E,0.000,0.000,301119,,E,N*02
,-62167219199999
NMEA,$GPGGA,113800.83,5546.2284,N,03741.2903,E,1,5,6.851,201.804,M,,M,0,*75
,1575113880832
Raw,426467205,1259149098830057984,18,,664401,0.8388424736913294,333.564095198152,535.017386243611,0.0,0,2,220.0,3,10198806,25,25.0,154.83543985756114,0.1,0,0.0,0.0,1.57542003E9,,,,0,,1,,1.57542003E9
Raw,426467206,1259149098830057984,18,,664401,0.8388424736913294,333.564095198152,535.017386243611,0.0,0,6,220.0,7,752294837,10,34.0,614.3302294774912,0.1,0,0.0,0.0,1.57542003E9,,,,0,,1,,1.57542003E9
Raw,426467207,1259149098830057984,18,,664401,0.8388424736913294,333.564095198152,535.017386243611,0.0,0,7,220.0,3,13906961,25,26.0,-391.66367687867023,0.1,0,0.0,0.0,1.57542003E9,,,,0,,1,,1.57542003E9
Raw,426467216,1259149098830057984,18,,664401,0.8388424736913294,333.564095198152,535.017386243611,0.0,0,9,220.0,3,1959428,25,18.0,84.47991968714632,0.1,0,0.0,0.0,1.57542003E9,,,,0,,1,,1.57542003E9
Raw,426467216,1259149098830057984,18,,664401,0.8388424736913294,333.564095198152,535.017386243611,0.0,0,23,220.0,33,2997306,25,19.0,734.7847017324484,0.1,0,0.0,0.0,1.60368755E9,,,,0,,3,,1.60368755E9
NMEA,$GNGSA,A,3,2,6,7,9,87,,,,,,,,,,,,,,,,10.951,6.851,8.543*15
,1575113880832
NMEA,$GPGSA,A,3,2,6,7,9,,,,,,,,,,,,,,,,,10.951,6.851,8.543*04
,1575113880832
NMEA,$GLGSA,A,3,87,,,,,,,,,,,,,,,,,,,,10.951,6.851,8.543*1D
,1575113880832
NMEA,$BDGSA,A,3,,,,,,,,,,,,,,,,,,,,,10.951,6.851,8.543*1F
,1575113880832
NMEA,$QZGSA,A,3,,,,,,,,,,,,,,,,,,,,,10.951,6.851,8.543*12
,1575113880832
NMEA,$GPGSV,7,1,28,2,25,299,23,3,21,153,,4,78,98,,6,27,253,32*48
,1575113880832
NMEA,$GPGSV,7,2,28,7,36,213,24,9,83,262,16,16,35,81,,18,5,,*45
,1575113880832
NMEA,$GPGSV,7,3,28,23,65,101,,26,27,50,,29,8,,,30,5,222,*76
,1575113880832
NMEA,$GLGSV,7,4,28,70,23,122,,71,76,106,,72,47,307,,73,60,155,*6A
,1575113880832
NMEA,$GLGSV,7,5,28,80,38,42,,81,8,16,,87,16,285,17,88,21,332,*5E
,1575113880832
NMEA,$BDGSV,7,6,28,201,9,119,,202,13,130,,209,18,93,,210,43,98,*5D
,1575113880832
NMEA,$BDGSV,7,7,28,211,5,,,212,5,,,213,30,259,,214,62,153,*68
,1575113880832
NMEA,$GPRMC,113800.83,A,5546.2284,N,03741.2903,E,3.308,0.000,301119,,E,A*1F
,1575113880832
Fix,gps,55.770473,37.688171,201.804487,1.702039,49.010777,1575113880830
NMEA,$GPGGA,113801.83,5546.2267,N,03741.2947,E,1,5,6.858,194.050,M,,M,0,*76
,1575113881834
Raw,426468187,1259149099830057984,18,,664915,0.8881656748708338,333.564095198152,535.017386243611,0.0,0,2,220.0,3,10198293,25,27.0,155.5975871917326,0.1,0,0.0,0.0,1.57542003E9,,,,0,,1,,1.57542003E9
Raw,426468188,1259149099830057984,18,,664915,0.8881656748708338,333.564095198152,535.017386243611,0.0,0,6,220.0,16399,560299752292794,10,35.0,614.2567562812474,0.1,0,0.0,0.0,1.57542003E9,,,,0,,1,,1.57542003E9
Raw,426468188,1259149099830057984,18,,664915,0.8881656748708338,333.564095198152,535.017386243611,0.0,0,7,220.0,3,13908279,25,23.0,-390.81160712521523,0.1,0,0.0,0.0,1.57542003E9,,,,0,,1,,1.57542003E9
Raw,426468189,1259149099830057984,18,,664915,0.8881656748708338,333.564095198152,535.017386243611,0.0,0,9,220.0,3,1959134,25,20.0,84.40425326116383,0.1,0,0.0,0.0,1.57542003E9,,,,0,,1,,1.57542003E9
Raw,426468190,1259149099830057984,18,,664915,0.8881656748708338,333.564095198152,535.017386243611,0.0,0,23,220.0,33,2994833,25,20.0,734.4600905500266,0.1,0,0.0,0.0,1.60368755E9,,,,0,,3,,1.60368755E9
Raw,426468191,1259149099830057984,18,,664915,0.8881656748708338,333.564095198152,535.017386243611,0.0,0,30,220.0,3,4878619,25,26.0,-544.4835386064369,0.1,0,0.0,0.0,1.57542003E9,,,,0,,1,,1.57542003E9
NMEA,$GNGSA,A,3,2,6,7,9,87,,,,,,,,,,,,,,,,10.963,6.858,8.553*1C
,1575113881834
NMEA,$GPGSA,A,3,2,6,7,9,,,,,,,,,,,,,,,,,10.963,6.858,8.553*0D
,1575113881834
NMEA,$GLGSA,A,3,87,,,,,,,,,,,,,,,,,,,,10.963,6.858,8.553*14
,1575113881834
NMEA,$BDGSA,A,3,,,,,,,,,,,,,,,,,,,,,10.963,6.858,8.553*16
,1575113881834
NMEA,$QZGSA,A,3,,,,,,,,,,,,,,,,,,,,,10.963,6.858,8.553*1B
,1575113881834
NMEA,$GPGSV,7,1,28,2,25,299,25,3,21,153,,4,78,98,,6,27,253,33*4F
,1575113881834
NMEA,$GPGSV,7,2,28,7,36,213,21,9,83,262,18,16,35,81,,18,5,,*4E
,1575113881834
NMEA,$GPGSV,7,3,28,23,65,101,,26,27,50,,29,8,,,30,5,222,24*70
,1575113881834
NMEA,$GLGSV,7,4,28,70,23,122,,71,76,106,,72,47,307,,73,60,155,*6A
,1575113881834
NMEA,$GLGSV,7,5,28,80,38,42,,81,8,16,,87,16,285,18,88,21,332,*51
,1575113881834
NMEA,$BDGSV,7,6,28,201,9,119,,202,13,130,,209,18,93,,210,43,98,*5D
,1575113881834
NMEA,$BDGSV,7,7,28,211,5,,,212,5,,,213,30,259,,214,62,153,*68
,1575113881834
NMEA,$GPRMC,113801.83,A,5546.2267,N,03741.2947,E,7.123,0.000,301119,,E,A*1C
,1575113881834
Fix,gps,55.770445,37.688245,194.049641,3.664292,28.801947,1575113881830
NMEA,$GPGGA,113802.83,5546.2248,N,03741.2904,E,1,5,6.864,192.230,M,,M,0,*72
,1575113882832
Raw,426469181,1259149100829390336,18,,-2250,-0.7119240502624962,333.564095198152,535.017386243611,0.0,0,2,220.0,3,10197770,25,24.0,155.5592056713067,0.1,0,0.0,0.0,1.57542003E9,,,,0,,1,,1.57542003E9
Raw,426469182,1259149100829390336,18,,-2250,-0.7119240502624962,333.564095198152,535.017386243611,0.0,0,6,220.0,16399,560300752290751,10,34.0,614.2995242611505,0.1,0,0.0,0.0,1.57542003E9,,,,0,,1,,1.57542003E9
Raw,426469182,1259149100829390336,18,,-2250,-0.7119240502624962,333.564095198152,535.017386243611,0.0,0,7,220.0,3,13909590,25,24.0,-390.9113990783226,0.1,0,0.0,0.0,1.57542003E9,,,,0,,1,,1.57542003E9
Raw,426469183,1259149100829390336,18,,-2250,-0.7119240502624962,333.564095198152,535.017386243611,0.0,0,9,220.0,3,1958839,25,21.0,84.17835059808567,0.1,0,0.0,0.0,1.57542003E9,,,,0,,1,,1.57542003E9
Raw,426469183,1259149100829390336,18,,-2250,-0.7119240502624962,333.564095198152,535.017386243611,0.0,0,23,220.0,33,2992378,25,21.0,734.8019377244354,0.1,0,0.0,0.0,1.60368755E9,,,,0,,3,,1.60368755E9
Raw,426469183,1259149100829390336,18,,-2250,-0.7119240502624962,333.564095198152,535.017386243611,0.0,0,30,220.0,3,4880493,25,25.0,-545.9387465380132,0.1,0,0.0,0.0,1.57542003E9,,,,0,,1,,1.57542003E9
NMEA,$GNGSA,A,3,2,6,7,9,87,,,,,,,,,,,,,,,,10.975,6.864,8.563*17
,1575113882832
NMEA,$GPGSA,A,3,2,6,7,9,,,,,,,,,,,,,,,,,10.975,6.864,8.563*06
,1575113882832
NMEA,$GLGSA,A,3,87,,,,,,,,,,,,,,,,,,,,10.975,6.864,8.563*1F
,1575113882832
NMEA,$BDGSA,A,3,,,,,,,,,,,,,,,,,,,,,10.975,6.864,8.563*1D
,1575113882832
NMEA,$QZGSA,A,3,,,,,,,,,,,,,,,,,,,,,10.975,6.864,8.563*10
,1575113882832
NMEA,$GPGSV,7,1,28,2,25,299,22,3,21,153,,4,78,98,,6,27,253,32*49
,1575113882832
NMEA,$GPGSV,7,2,28,7,36,213,22,9,83,262,19,16,35,81,,18,5,,*4C
,1575113882832
NMEA,$GPGSV,7,3,28,23,65,101,,26,27,50,,29,8,,,30,5,222,23*77
,1575113882832
NMEA,$GLGSV,7,4,28,70,23,122,,71,76,106,,72,47,307,,73,60,155,*6A
,1575113882832
NMEA,$GLGSV,7,5,28,80,38,42,,81,8,16,,87,16,285,19,88,21,332,*50
,1575113882832
NMEA,$BDGSV,7,6,28,201,9,119,,202,13,130,,209,18,93,,210,43,98,*5D
,1575113882832
NMEA,$BDGSV,7,7,28,211,5,,,212,5,,,213,30,259,,214,62,153,*68
,1575113882832
NMEA,$GPRMC,113802.83,A,5546.2248,N,03741.2904,E,6.344,0.000,301119,,E,A*17
,1575113882832
Fix,gps,55.770413,37.688174,192.230452,3.263617,24.162481,1575113882829
NMEA,$GPGGA,113803.83,5546.2239,N,03741.2861,E,1,6,3.635,189.620,M,,M,0,*74
,1575113884004
Raw,426470182,1259149102000000000,18,,-1699,-0.5572871641127222,333.564095198152,548.4203928664948,0.0,0,2,220.0,3,807060,25,26.0,155.50876138731837,0.1,0,0.0,0.0,1.57542003E9,,,,0,,1,,1.57542003E9
Raw,426470182,1259149102000000000,18,,-1699,-0.5572871641127222,333.564095198152,548.4203928664948,0.0,0,6,220.0,16399,560301922898514,10,34.0,614.5528422959615,0.1,0,0.0,0.0,1.57542003E9,,,,0,,1,,1.57542003E9
Raw,426470183,1259149102000000000,18,,-1699,-0.5572871641127222,333.564095198152,548.4203928664948,0.0,0,7,220.0,3,4520699,25,24.0,-391.1614272685256,0.1,0,0.0,0.0,1.57542003E9,,,,0,,1,,1.57542003E9
Raw,426470183,1259149102000000000,18,,-1699,-0.5572871641127222,333.564095198152,548.4203928664948,0.0,0,9,220.0,3,12568361,25,21.0,84.12680969922803,0.1,0,0.0,0.0,1.57542003E9,,,,0,,1,,1.57542003E9
Raw,426470183,1259149102000000000,18,,-1699,-0.5572871641127222,333.564095198152,548.4203928664948,0.0,0,23,220.0,33,3599725,25,22.0,734.9398256603314,0.1,0,0.0,0.0,1.60368755E9,,,,0,,3,,1.60368755E9
Raw,426470184,1259149102000000000,18,,-1699,-0.5572871641127222,333.564095198152,548.4203928664948,0.0,0,30,220.0,3,15492124,25,23.0,-545.4551393806469,0.1,0,0.0,0.0,1.57542003E9,,,,0,,1,,1.57542003E9
NMEA,$GNGSA,A,3,2,6,7,9,30,87,,,,,,,,,,,,,,,4.887,3.635,3.267*2A
,1575113884004
NMEA,$GPGSA,A,3,2,6,7,9,30,,,,,,,,,,,,,,,,4.887,3.635,3.267*3B
,1575113884004
NMEA,$GLGSA,A,3,87,,,,,,,,,,,,,,,,,,,,4.887,3.635,3.267*21
,1575113884004
NMEA,$BDGSA,A,3,,,,,,,,,,,,,,,,,,,,,4.887,3.635,3.267*23
,1575113884004
NMEA,$QZGSA,A,3,,,,,,,,,,,,,,,,,,,,,4.887,3.635,3.267*2E
,1575113884004
NMEA,$GPGSV,7,1,28,2,25,299,24,3,21,153,,4,78,98,,6,27,253,32*4F
,1575113884004
NMEA,$GPGSV,7,2,28,7,36,213,22,9,83,262,19,16,35,81,,18,5,,*4C
,1575113884004
NMEA,$GPGSV,7,3,28,23,65,101,,26,27,50,,29,8,,,30,5,222,21*75
,1575113884004
NMEA,$GLGSV,7,4,28,70,23,122,,71,76,106,,72,47,307,,73,60,155,*6A
,1575113884004
NMEA,$GLGSV,7,5,28,80,38,42,,81,8,16,,87,16,285,20,88,21,332,*5A
,1575113884004
NMEA,$BDGSV,7,6,28,201,9,119,,202,13,130,,209,18,93,,210,43,98,*5D
,1575113884004
NMEA,$BDGSV,7,7,28,211,5,,,212,5,,,213,30,259,,214,62,153,*68
,1575113884004
NMEA,$GPRMC,113803.83,A,5546.2239,N,03741.2861,E,1.414,0.000,301119,,E,A*17
,1575113884004
Fix,gps,55.770399,37.688101,189.620471,0.727322,19.000000,1575113884000
NMEA,$GPGGA,113805.00,5546.2217,N,03741.2773,E,1,6,3.636,196.655,M,,M,0,*76
,1575113885005
Raw,426471350,1259149103000000000,18,,-992,-0.7279563884048912,333.564095198152,547.3244310223464,0.0,0,2,220.0,3,806413,25,27.0,155.6557077798061,0.1,0,0.0,0.0,1.57542003E9,,,,0,,1,,1.57542003E9
Raw,426471351,1259149103000000000,18,,-992,-0.7279563884048912,333.564095198152,547.3244310223464,0.0,0,6,220.0,16399,560302922896087,10,33.0,614.7425566683523,0.1,0,0.0,0.0,1.57542003E9,,,,0,,1,,1.57542003E9
Raw,426471351,1259149103000000000,18,,-992,-0.7279563884048912,333.564095198152,547.3244310223464,0.0,0,7,220.0,3,4522192,25,25.0,-391.01338426116854,0.1,0,0.0,0.0,1.57542003E9,,,,0,,1,,1.57542003E9
Raw,426471351,1259149103000000000,18,,-992,-0.7279563884048912,333.564095198152,547.3244310223464,0.0,0,9,220.0,3,12567998,25,21.0,84.09610448288731,0.1,0,0.0,0.0,1.57542003E9,,,,0,,1,,1.57542003E9
Raw,426471352,1259149103000000000,18,,-992,-0.7279563884048912,333.564095198152,547.3244310223464,0.0,0,23,220.0,33,3596805,25,26.0,735.2874181654025,0.1,0,0.0,0.0,1.60368755E9,,,,0,,3,,1.60368755E9
Raw,426471352,1259149103000000000,18,,-992,-0.7279563884048912,333.564095198152,547.3244310223464,0.0,0,30,220.0,3,15494204,25,24.0,-545.8071527536958,0.1,0,0.0,0.0,1.57542003E9,,,,0,,1,,1.57542003E9
NMEA,$GNGSA,A,3,2,6,7,9,30,87,,,,,,,,,,,,,,,4.889,3.636,3.268*28
,1575113885005
NMEA,$GPGSA,A,3,2,6,7,9,30,,,,,,,,,,,,,,,,4.889,3.636,3.268*39
,1575113885005
NMEA,$GLGSA,A,3,87,,,,,,,,,,,,,,,,,,,,4.889,3.636,3.268*23
,1575113885005
NMEA,$BDGSA,A,3,,,,,,,,,,,,,,,,,,,,,4.889,3.636,3.268*21
,1575113885005
NMEA,$QZGSA,A,3,,,,,,,,,,,,,,,,,,,,,4.889,3.636,3.268*2C
,1575113885005
NMEA,$GPGSV,7,1,28,2,25,299,25,3,21,153,,4,78,98,,6,27,253,31*4D
,1575113885005
NMEA,$GPGSV,7,2,28,7,36,213,23,9,83,262,19,16,35,81,,18,5,,*4D
,1575113885005
NMEA,$GPGSV,7,3,28,23,65,101,,26,27,50,,29,8,,,30,5,222,22*76
,1575113885005
NMEA,$GLGSV,7,4,28,70,23,122,,71,76,106,,72,47,307,,73,60,155,*6A
,1575113885005
NMEA,$GLGSV,7,5,28,80,38,42,,81,8,16,,87,16,285,24,88,21,332,*5E
,1575113885005
NMEA,$BDGSV,7,6,28,201,9,119,,202,13,130,,209,18,93,,210,43,98,*5D
,1575113885005
NMEA,$BDGSV,7,7,28,211,5,,,212,5,,,213,30,259,,214,62,153,*68
,1575113885005
NMEA,$GPRMC,113805.00,A,5546.2217,N,03741.2773,E,0.762,0.000,301119,,E,A*19
,1575113885005
Fix,gps,55.770362,37.687954,196.655174,0.391975,19.000000,1575113885000
Raw,426472364,1259149104000000000,18,,-445,-0.17916633034985807,333.564095198152,549.003460263737,0.0,0,2,220.0,3,805898,25,23.0,155.8081372466404,0.1,0,0.0,0.0,1.57542003E9,,,,0,,1,,1.57542003E9
Raw,426472364,1259149104000000000,18,,-445,-0.17916633034985807,333.564095198152,549.003460263737,0.0,0,6,220.0,16399,560303922894038,10,33.0,614.677856391063,0.1,0,0.0,0.0,1.57542003E9,,,,0,,1,,1.57542003E9
Raw,426472364,1259149104000000000,18,,-445,-0.17916633034985807,333.564095198152,549.003460263737,0.0,0,7,220.0,3,4523494,25,25.0,-391.2009054038208,0.1,0,0.0,0.0,1.57542003E9,,,,0,,1,,1.57542003E9
Raw,426472364,1259149104000000000,18,,-445,-0.17916633034985807,333.564095198152,549.003460263737,0.0,0,9,220.0,3,12567705,25,20.0,84.33955298387446,0.1,0,0.0,0.0,1.57542003E9,,,,0,,1,,1.57542003E9
Raw,426472365,1259149104000000000,18,,-445,-0.17916633034985807,333.564095198152,549.003460263737,0.0,0,23,220.0,33,3594368,25,24.0,735.9912211715384,0.1,0,0.0,0.0,1.60368755E9,,,,0,,3,,1.60368755E9
Raw,426472365,1259149104000000000,18,,-445,-0.17916633034985807,333.564095198152,549.003460263737,0.0,0,30,220.0,3,15496022,25,24.0,-545.4441732319538,0.1,0,0.0,0.0,1.57542003E9,,,,0,,1,,1.57542003E9
NMEA,$GPGGA,113806.00,5546.2197,N,03741.2761,E,1,6,3.593,196.399,M,,M,0,*74
,1575113886004
NMEA,$GNGSA,A,3,2,6,7,9,30,87,,,,,,,,,,,,,,,4.833,3.593,3.232*2A
,1575113886004
NMEA,$GPGSA,A,3,2,6,7,9,30,,,,,,,,,,,,,,,,4.833,3.593,3.232*3B
,1575113886004
NMEA,$GLGSA,A,3,87,,,,,,,,,,,,,,,,,,,,4.833,3.593,3.232*21
,1575113886004
NMEA,$BDGSA,A,3,,,,,,,,,,,,,,,,,,,,,4.833,3.593,3.232*23
,1575113886004
NMEA,$QZGSA,A,3,,,,,,,,,,,,,,,,,,,,,4.833,3.593,3.232*2E
,1575113886004
NMEA,$GPGSV,7,1,28,2,25,299,21,3,21,153,,4,78,98,,6,27,253,31*49
,1575113886004
NMEA,$GPGSV,7,2,28,7,36,213,23,9,83,262,18,16,35,81,,18,5,,*4C
,1575113886004
NMEA,$GPGSV,7,3,28,23,65,101,,26,27,50,,29,8,,,30,5,222,22*76
,1575113886004
NMEA,$GLGSV,7,4,28,70,23,122,,71,76,106,,72,47,307,,73,60,155,*6A
,1575113886004
NMEA,$GLGSV,7,5,28,80,38,42,,81,8,16,,87,16,285,22,88,21,332,*58
,1575113886004
NMEA,$BDGSV,7,6,28,201,9,119,,202,13,130,,209,18,93,,210,43,98,*5D
,1575113886004
NMEA,$BDGSV,7,7,28,211,5,,,212,5,,,213,30,259,,214,62,153,*68
,1575113886004
NMEA,$GPRMC,113806.00,A,5546.2197,N,03741.2761,E,1.942,0.000,301119,,E,A*1F
,1575113886004
Fix,gps,55.770328,37.687935,196.398805,0.999097,93.017822,1575113886000
Raw,426473332,1259149105000000000,18,,97,0.5819284460786918,333.564095198152,546.1042844675845,0.0,0,2,220.0,3,805370,25,23.0,155.43199834646657,0.1,0,0.0,0.0,1.57542003E9,,,,0,,1,,1.57542003E9
Raw,426473333,1259149105000000000,18,,97,0.5819284460786918,333.564095198152,546.1042844675845,0.0,0,6,220.0,16399,560304922891988,10,32.0,614.5813542825636,0.1,0,0.0,0.0,1.57542003E9,,,,0,,1,,1.57542003E9
Raw,426473334,1259149105000000000,18,,97,0.5819284460786918,333.564095198152,546.1042844675845,0.0,0,7,220.0,3,4524797,25,25.0,-391.6878024057951,0.1,0,0.0,0.0,1.57542003E9,,,,0,,1,,1.57542003E9
Raw,426473334,1259149105000000000,18,,97,0.5819284460786918,333.564095198152,546.1042844675845,0.0,0,9,220.0,3,12567418,25,21.0,84.44592462619767,0.1,0,0.0,0.0,1.57542003E9,,,,0,,1,,1.57542003E9
Raw,426473335,1259149105000000000,18,,97,0.5819284460786918,333.564095198152,546.1042844675845,0.0,0,23,220.0,33,3591912,25,21.0,734.9312076643379,0.1,0,0.0,0.0,1.60368755E9,,,,0,,3,,1.60368755E9
Raw,426473335,1259149105000000000,18,,97,0.5819284460786918,333.564095198152,546.1042844675845,0.0,0,30,220.0,7,915497842,25,26.0,-545.814829057781,0.1,0,0.0,0.0,1.57542003E9,,,,0,,1,,1.57542003E9
NMEA,$GPGGA,113807.00,5546.2193,N,03741.2758,E,1,6,3.594,194.769,M,,M,0,*75
,1575113887003
NMEA,$GNGSA,A,3,2,6,7,9,30,87,,,,,,,,,,,,,,,4.834,3.594,3.233*2B
,1575113887003
NMEA,$GPGSA,A,3,2,6,7,9,30,,,,,,,,,,,,,,,,4.834,3.594,3.233*3A
,1575113887003
NMEA,$GLGSA,A,3,87,,,,,,,,,,,,,,,,,,,,4.834,3.594,3.233*20
,1575113887003
NMEA,$BDGSA,A,3,,,,,,,,,,,,,,,,,,,,,4.834,3.594,3.233*22
,1575113887003
NMEA,$QZGSA,A,3,,,,,,,,,,,,,,,,,,,,,4.834,3.594,3.233*2F
,1575113887003
NMEA,$GPGSV,9,1,34,2,25,299,21,3,21,153,,4,78,98,,6,27,253,30*4B
,1575113887003
NMEA,$GPGSV,9,2,34,7,36,213,23,9,83,262,19,16,35,81,,18,5,,*4E
,1575113887003
NMEA,$GPGSV,9,3,34,23,65,101,,26,27,50,,29,8,,,30,5,222,24*73
,1575113887003
NMEA,$GLGSV,9,4,34,70,23,122,,71,76,106,,72,47,307,,73,60,155,*69
,1575113887003
NMEA,$GLGSV,9,5,34,80,38,42,,81,8,16,,87,16,285,19,88,21,332,*53
,1575113887003
NMEA,$BDGSV,9,6,34,201,9,119,,202,13,130,,203,25,176,,204,5,,*56
,1575113887003
NMEA,$BDGSV,9,7,34,205,21,151,,206,62,256,,207,22,136,,208,5,,*6F
,1575113887003
NMEA,$BDGSV,9,8,34,209,18,93,,210,43,98,,211,5,,,212,5,,*60
,1575113887003
NMEA,$BDGSV,9,9,34,213,30,259,,214,62,153,*66
,1575113887003
NMEA,$GPRMC,113807.00,A,5546.2193,N,03741.2758,E,1.043,0.000,301119,,E,A*18
,1575113887003
Fix,gps,55.770321,37.687931,194.768673,0.536459,82.541061,1575113887000
NMEA,$GPGGA,113808.00,5546.2193,N,03741.2742,E,1,6,3.594,195.309,M,,M,0,*72
,1575113888006
Raw,426474358,1259149106000000000,18,,645,0.2843267688040214,333.564095198152,545.1120795557246,0.0,0,2,220.0,3,804851,25,24.0,155.29930794727989,0.1,0,0.0,0.0,1.57542003E9,,,,0,,1,,1.57542003E9
Raw,426474358,1259149106000000000,18,,645,0.2843267688040214,333.564095198152,545.1120795557246,0.0,0,6,220.0,16399,560305922889940,10,34.0,614.1810898552649,0.1,0,0.0,0.0,1.57542003E9,,,,0,,1,,1.57542003E9
Raw,426474360,1259149106000000000,18,,645,0.2843267688040214,333.564095198152,545.1120795557246,0.0,0,7,220.0,3,4526101,25,25.0,-392.04091239371337,0.1,0,0.0,0.0,1.57542003E9,,,,0,,1,,1.57542003E9
Raw,426474361,1259149106000000000,18,,645,0.2843267688040214,333.564095198152,545.1120795557246,0.0,0,9,220.0,3,12567132,25,21.0,84.26278994302265,0.1,0,0.0,0.0,1.57542003E9,,,,0,,1,,1.57542003E9
Raw,426474361,1259149106000000000,18,,645,0.2843267688040214,333.564095198152,545.1120795557246,0.0,0,23,220.0,33,3589475,25,23.0,734.3911465820786,0.1,0,0.0,0.0,1.60368755E9,,,,0,,3,,1.60368755E9
Raw,426474361,1259149106000000000,18,,645,0.2843267688040214,333.564095198152,545.1120795557246,0.0,0,30,220.0,16399,560305915499655,25,27.0,-546.0089298896492,0.1,0,0.0,0.0,1.57542003E9,,,,0,,1,,1.57542003E9
NMEA,$GNGSA,A,3,2,6,7,9,30,87,,,,,,,,,,,,,,,4.835,3.594,3.234*2D
,1575113888006
Fix,gps,55.770322,37.687903,195.309071,0.660167,75.790970,1575113888000
NMEA,$GPGSA,A,3,2,6,7,9,30,,,,,,,,,,,,,,,,4.835,3.594,3.234*3C
,1575113888006
NMEA,$GLGSA,A,3,87,,,,,,,,,,,,,,,,,,,,4.835,3.594,3.234*26
,1575113888006
NMEA,$BDGSA,A,3,,,,,,,,,,,,,,,,,,,,,4.835,3.594,3.234*24
,1575113888006
NMEA,$QZGSA,A,3,,,,,,,,,,,,,,,,,,,,,4.835,3.594,3.234*29
,1575113888006
NMEA,$GPGSV,9,1,34,2,25,299,22,3,21,153,,4,78,98,,6,27,253,32*4A
,1575113888006
NMEA,$GPGSV,9,2,34,7,36,213,23,9,83,262,19,16,35,81,,18,5,,*4E
,1575113888006
NMEA,$GPGSV,9,3,34,23,65,101,,26,27,50,,29,8,,,30,5,222,25*72
,1575113888006
NMEA,$GLGSV,9,4,34,70,23,122,,71,76,107,,72,47,307,,73,60,155,*68
,1575113888006
NMEA,$GLGSV,9,5,34,80,38,42,,81,8,16,,87,16,285,21,88,21,332,*58
,1575113888006
NMEA,$BDGSV,9,6,34,201,9,119,,202,13,130,,203,25,176,,204,5,,*56
,1575113888006
NMEA,$BDGSV,9,7,34,205,21,151,,206,62,256,,207,22,136,,208,5,,*6F
,1575113888006
NMEA,$BDGSV,9,8,34,209,18,93,,210,43,98,,211,5,,,212,5,,*60
,1575113888006
NMEA,$BDGSV,9,9,34,213,30,259,,214,62,153,*66
,1575113888006
NMEA,$GPRMC,113808.00,A,5546.2193,N,03741.2742,E,1.283,0.000,301119,,E,A*12
,1575113888006
NMEA,$GPGGA,113809.00,5546.2199,N,03741.2713,E,1,6,3.594,196.078,M,,M,0,*7B
,1575113889011
NMEA,$GNGSA,A,3,2,6,7,9,30,87,,,,,,,,,,,,,,,4.836,3.594,3.235*2F
,1575113889011
Raw,426475386,1259149107000000000,18,,1196,0.7107841438512423,333.564095198152,544.0563055970065,0.0,0,2,220.0,3,804336,25,26.0,154.98238625004888,0.1,0,0.0,0.0,1.57542003E9,,,,0,,1,,1.57542003E9
Raw,426475387,1259149107000000000,18,,1196,0.7107841438512423,333.564095198152,544.0563055970065,0.0,0,6,220.0,16399,560306922887893,10,32.0,614.1416117199697,0.1,0,0.0,0.0,1.57542003E9,,,,0,,1,,1.57542003E9
Raw,426475388,1259149107000000000,18,,1196,0.7107841438512423,333.564095198152,544.0563055970065,0.0,0,7,220.0,3,4527390,25,26.0,-391.86764724436216,0.1,0,0.0,0.0,1.57542003E9,,,,0,,1,,1.57542003E9
Raw,426475388,1259149107000000000,18,,1196,0.7107841438512423,333.564095198152,544.0563055970065,0.0,0,9,220.0,3,12566846,25,21.0,84.19150997651741,0.1,0,0.0,0.0,1.57542003E9,,,,0,,1,,1.57542003E9
Raw,426475389,1259149107000000000,18,,1196,0.7107841438512423,333.564095198152,544.0563055970065,0.0,0,23,220.0,33,3587019,25,23.0,734.0550447383321,0.1,0,0.0,0.0,1.60368755E9,,,,0,,3,,1.60368755E9
Raw,426475391,1259149107000000000,18,,1196,0.7107841438512423,333.564095198152,544.0563055970065,0.0,0,30,220.0,16399,560306915501463,25,26.0,-546.3488804991357,0.1,0,0.0,0.0,1.57542003E9,,,,0,,1,,1.57542003E9
Fix,gps,55.770332,37.687854,196.078079,0.664763,71.467224,1575113889000
NMEA,$GPGSA,A,3,2,6,7,9,30,,,,,,,,,,,,,,,,4.836,3.594,3.235*3E
,1575113889011
NMEA,$GLGSA,A,3,87,,,,,,,,,,,,,,,,,,,,4.836,3.594,3.235*24
,1575113889011
NMEA,$BDGSA,A,3,,,,,,,,,,,,,,,,,,,,,4.836,3.594,3.235*26
,1575113889011
NMEA,$QZGSA,A,3,,,,,,,,,,,,,,,,,,,,,4.836,3.594,3.235*2B
,1575113889011
NMEA,$GPGSV,9,1,34,2,25,299,24,3,21,153,,4,78,98,,6,27,253,30*4E
,1575113889011
NMEA,$GPGSV,9,2,34,7,36,213,24,9,83,262,19,16,35,81,,18,5,,*49
,1575113889011
NMEA,$GPGSV,9,3,34,23,65,101,,26,27,50,,29,8,,,30,5,222,24*73
,1575113889011
NMEA,$GLGSV,9,4,34,70,23,122,,71,76,107,,72,47,307,,73,60,155,*68
,1575113889011
NMEA,$GLGSV,9,5,34,80,38,42,,81,8,16,,87,16,285,21,88,21,332,*58
,1575113889011
NMEA,$BDGSV,9,6,34,201,9,119,,202,13,130,,203,25,176,,204,5,,*56
,1575113889011
NMEA,$BDGSV,9,7,34,205,21,151,,206,62,256,,207,22,136,,208,5,,*6F
,1575113889011
NMEA,$BDGSV,9,8,34,209,18,93,,210,43,98,,211,5,,,212,5,,*60
,1575113889011
NMEA,$BDGSV,9,9,34,213,30,259,,214,62,153,*66
,1575113889011
NMEA,$GPRMC,113809.00,A,5546.2199,N,03741.2713,E,1.292,0.000,301119,,E,A*1D
,1575113889011
NMEA,$GPGGA,113810.00,5546.2201,N,03741.2699,E,1,6,3.595,196.229,M,,M,0,*75
,1575113890004
Raw,426476351,1259149108000000000,18,,1741,0.6942663054676359,333.564095198152,543.9477721393632,0.0,0,2,220.0,3,803823,25,22.0,155.06353575037792,0.1,0,0.0,0.0,1.57542003E9,,,,0,,1,,1.57542003E9
Raw,426476352,1259149108000000000,18,,1741,0.6942663054676359,333.564095198152,543.9477721393632,0.0,0,6,220.0,16399,560307922885844,10,32.0,614.0966505103279,0.1,0,0.0,0.0,1.57542003E9,,,,0,,1,,1.57542003E9
Raw,426476352,1259149108000000000,18,,1741,0.6942663054676359,333.564095198152,543.9477721393632,0.0,0,7,220.0,3,4528696,25,24.0,-391.50137787801214,0.1,0,0.0,0.0,1.57542003E9,,,,0,,1,,1.57542003E9
Raw,426476353,1259149108000000000,18,,1741,0.6942663054676359,333.564095198152,543.9477721393632,0.0,0,9,220.0,3,12566566,25,21.0,83.79124554921873,0.1,0,0.0,0.0,1.57542003E9,,,,0,,1,,1.57542003E9
Raw,426476353,1259149108000000000,18,,1741,0.6942663054676359,333.564095198152,543.9477721393632,0.0,0,23,220.0,33,3584573,25,22.0,734.8766270230458,0.1,0,0.0,0.0,1.60368755E9,,,,0,,3,,1.60368755E9
Raw,426476353,1259149108000000000,18,,1741,0.6942663054676359,333.564095198152,543.9477721393632,0.0,0,30,220.0,16399,560307915503295,25,26.0,-546.3861654046923,0.1,0,0.0,0.0,1.57542003E9,,,,0,,1,,1.57542003E9
NMEA,$GNGSA,A,3,2,6,7,9,30,87,,,,,,,,,,,,,,,4.837,3.595,3.236*2C
,1575113890004
NMEA,$GPGSA,A,3,2,6,7,9,30,,,,,,,,,,,,,,,,4.837,3.595,3.236*3D
,1575113890004
NMEA,$GLGSA,A,3,87,,,,,,,,,,,,,,,,,,,,4.837,3.595,3.236*27
,1575113890004
NMEA,$BDGSA,A,3,,,,,,,,,,,,,,,,,,,,,4.837,3.595,3.236*25
,1575113890004
NMEA,$QZGSA,A,3,,,,,,,,,,,,,,,,,,,,,4.837,3.595,3.236*28
,1575113890004
NMEA,$GPGSV,9,1,34,2,25,299,20,3,21,153,,4,78,98,,6,27,253,30*4A
,1575113890004
NMEA,$GPGSV,9,2,34,7,36,213,22,9,83,262,19,16,35,81,,18,5,,*4F
,1575113890004
NMEA,$GPGSV,9,3,34,23,65,101,,26,26,50,,29,8,,,30,5,222,24*72
,1575113890004
NMEA,$GLGSV,9,4,34,70,23,122,,71,76,107,,72,47,307,,73,60,155,*68
,1575113890004
NMEA,$GLGSV,9,5,34,80,38,42,,81,8,16,,87,16,285,20,88,21,332,*59
,1575113890004
NMEA,$BDGSV,9,6,34,201,9,119,,202,13,130,,203,25,176,,204,5,,*56
,1575113890004
NMEA,$BDGSV,9,7,34,205,21,151,,206,62,256,,207,22,136,,208,5,,*6F
,1575113890004
NMEA,$BDGSV,9,8,34,209,18,93,,210,43,98,,211,5,,,212,5,,*60
,1575113890004
NMEA,$BDGSV,9,9,34,213,30,259,,214,62,153,*66
,1575113890004
NMEA,$GPRMC,113810.00,A,5546.2201,N,03741.2699,E,1.446,0.000,301119,,E,A*1B
,1575113890004
Fix,gps,55.770335,37.687832,196.229166,0.743683,70.125572,1575113890000
NMEA,$GPGGA,113811.00,5546.2202,N,03741.2674,E,1,6,3.595,196.462,M,,M,0,*7D
,1575113891004
Raw,426477377,1259149109000000000,18,,2290,0.9449232877282157,333.564095198152,544.6211207096377,0.0,0,2,220.0,3,803305,25,23.0,155.32781993388198,0.1,0,0.0,0.0,1.57542003E9,,,,0,,1,,1.57542003E9
Raw,426477378,1259149109000000000,18,,2290,0.9449232877282157,333.564095198152,544.6211207096377,0.0,0,6,220.0,16399,560308922883795,10,33.0,614.3784805317409,0.1,0,0.0,0.0,1.57542003E9,,,,0,,1,,1.57542003E9
Raw,426477378,1259149109000000000,18,,2290,0.9449232877282157,333.564095198152,544.6211207096377,0.0,0,7,220.0,3,4529986,25,23.0,-391.4860252698418,0.1,0,0.0,0.0,1.57542003E9,,,,0,,1,,1.57542003E9
Raw,426477381,1259149109000000000,18,,2290,0.9449232877282157,333.564095198152,544.6211207096377,0.0,0,9,220.0,3,12566261,25,21.0,84.71349865430966,0.1,0,0.0,0.0,1.57542003E9,,,,0,,1,,1.57542003E9
Raw,426477383,1259149109000000000,18,,2290,0.9449232877282157,333.564095198152,544.6211207096377,0.0,0,23,220.0,33,3582113,25,21.0,735.3678527946752,0.1,0,0.0,0.0,1.60368755E9,,,,0,,3,,1.60368755E9
Raw,426477385,1259149109000000000,18,,2290,0.9449232877282157,333.564095198152,544.6211207096377,0.0,0,30,220.0,16399,560308915505113,25,24.0,-546.2622479244601,0.1,0,0.0,0.0,1.57542003E9,,,,0,,1,,1.57542003E9
NMEA,$GNGSA,A,3,2,6,7,9,30,87,,,,,,,,,,,,,,,4.838,3.595,3.238*2D
,1575113891004
NMEA,$GPGSA,A,3,2,6,7,9,30,,,,,,,,,,,,,,,,4.838,3.595,3.238*3C
,1575113891004
NMEA,$GLGSA,A,3,87,,,,,,,,,,,,,,,,,,,,4.838,3.595,3.238*26
,1575113891004
NMEA,$BDGSA,A,3,,,,,,,,,,,,,,,,,,,,,4.838,3.595,3.238*24
,1575113891004
NMEA,$QZGSA,A,3,,,,,,,,,,,,,,,,,,,,,4.838,3.595,3.238*29
,1575113891004
NMEA,$GPGSV,9,1,34,2,25,299,21,3,21,153,,4,78,98,,6,27,253,31*4A
,1575113891004
NMEA,$GPGSV,9,2,34,7,36,213,21,9,83,262,19,16,35,81,,18,5,,*4C
,1575113891004
NMEA,$GPGSV,9,3,34,23,65,101,,26,26,50,,29,8,,,30,5,222,22*74
,1575113891004
NMEA,$GLGSV,9,4,34,70,23,122,,71,76,107,,72,47,307,,73,60,155,*68
,1575113891004
NMEA,$GLGSV,9,5,34,80,38,42,,81,8,16,,87,16,285,19,88,21,332,*53
,1575113891004
NMEA,$BDGSV,9,6,34,201,9,119,,202,13,130,,203,25,176,,204,5,,*56
,1575113891004
NMEA,$BDGSV,9,7,34,205,21,151,,206,62,256,,207,22,136,,208,5,,*6F
,1575113891004
NMEA,$BDGSV,9,8,34,209,18,93,,210,43,98,,211,5,,,212,5,,*60
,1575113891004
NMEA,$BDGSV,9,9,34,213,30,259,,214,62,153,*66
,1575113891004
NMEA,$GPRMC,113811.00,A,5546.2202,N,03741.2674,E,1.565,0.000,301119,,E,A*1A
,1575113891004
Fix,gps,55.770336,37.687790,196.462010,0.805339,69.186974,1575113891000
NMEA,$GPGGA,113812.00,5546.2202,N,03741.2664,E,1,6,3.596,197.633,M,,M,0,*7B
,1575113892008
Raw,426478359,1259149110000000000,18,,2838,0.7040706155235057,333.564095198152,545.3552168220335,0.0,0,2,220.0,3,802789,25,23.0,155.87064429419115,0.1,0,0.0,0.0,1.57542003E9,,,,0,,1,,1.57542003E9
Raw,426478360,1259149110000000000,18,,2838,0.7040706155235057,333.564095198152,545.3552168220335,0.0,0,6,220.0,16399,560309922881741,10,33.0,614.8248027835507,0.1,0,0.0,0.0,1.57542003E9,,,,0,,1,,1.57542003E9
Raw,426478360,1259149110000000000,18,,2838,0.7040706155235057,333.564095198152,545.3552168220335,0.0,0,7,220.0,3,4531285,25,24.0,-391.7557925276924,0.1,0,0.0,0.0,1.57542003E9,,,,0,,1,,1.57542003E9
Raw,426478361,1259149110000000000,18,,2838,0.7040706155235057,333.564095198152,545.3552168220335,0.0,0,9,220.0,3,12565983,25,21.0,84.49417568044737,0.1,0,0.0,0.0,1.57542003E9,,,,0,,1,,1.57542003E9
