# 
# Header Description:
# 
# Version: v2.0.0.1 Platform: 9 Manufacturer: HUAWEI Model: ANE-LX1
# 
# Raw,ElapsedRealtimeMillis,TimeNanos,LeapSecond,TimeUncertaintyNanos,FullBiasNanos,BiasNanos,BiasUncertaintyNanos,DriftNanosPerSecond,DriftUncertaintyNanosPerSecond,HardwareClockDiscontinuityCount,Svid,TimeOffsetNanos,State,ReceivedSvTimeNanos,ReceivedSvTimeUncertaintyNanos,Cn0DbHz,PseudorangeRateMetersPerSecond,PseudorangeRateUncertaintyMetersPerSecond,AccumulatedDeltaRangeState,AccumulatedDeltaRangeMeters,AccumulatedDeltaRangeUncertaintyMeters,CarrierFrequencyHz,CarrierCycles,CarrierPhase,CarrierPhaseUncertainty,MultipathIndicator,SnrInDb,ConstellationType,AgcDb,CarrierFrequencyHz
# 
# Fix,Provider,Latitude,Longitude,Altitude,Speed,Accuracy,(UTC)TimeInMs
# 
# Nav,Svid,Type,Status,MessageId,Sub-messageId,Data(Bytes)
# 
Fix,gps,55.770812,37.688827,145.238634,0.000000,4.900000,1577102751000
Raw,1039668,1261137969000000000,18,,61301,0.49426607860368676,333.564095198152,269.77685752245185,0.0,0,5,220.0,16399,129968926974835,5,43.0,-43.03116747178137,0.1,0,0.0,0.0,1.57542003E9,,,,0,,1,,1.57542003E9
Raw,1039669,1261137969000000000,18,,61301,0.49426607860368676,333.564095198152,269.77685752245185,0.0,0,8,220.0,3,88100,25,24.0,-401.53650054708123,0.1,0,0.0,0.0,1.57542003E9,,,,0,,1,,1.57542003E9
Raw,1039669,1261137969000000000,18,,61301,0.49426607860368676,333.564095198152,269.77685752245185,0.0,0,7,220.0,16399,129968931390427,10,34.0,98.12071204651147,0.1,0,0.0,0.0,1.57542003E9,,,,0,,1,,1.57542003E9
Raw,1039670,1261137969000000000,18,,61301,0.49426607860368676,333.564095198152,269.77685752245185,0.0,0,30,220.0,3,9567729,5,38.0,-294.62422709329985,0.1,0,0.0,0.0,1.57542003E9,,,,0,,1,,1.57542003E9
Raw,1039671,1261137969000000000,18,,61301,0.49426607860368676,333.564095198152,269.77685752245185,0.0,0,27,220.0,16399,129968921425716,10,31.0,-91.05522244353779,0.1,0,0.0,0.0,1.57542003E9,,,,0,,1,,1.57542003E9
Raw,1039672,1261137969000000000,18,,61301,0.49426607860368676,333.564095198152,269.77685752245185,0.0,0,16,220.0,3,17639878,25,25.0,777.3277738073375,0.1,0,0.0,0.0,1.57542003E9,,,,0,,1,,1.57542003E9
Raw,1039672,1261137969000000000,18,,61301,0.49426607860368676,333.564095198152,269.77685752245185,0.0,0,28,220.0,3,18947799,25,25.0,-619.0610260237008,0.1,0,0.0,0.0,1.57542003E9,,,,0,,1,,1.57542003E9
Raw,1039672,1261137969000000000,18,,61301,0.49426607860368676,333.564095198152,269.77685752245185,0.0,0,4,220.0,3,16376821,25,21.0,774.2111943487544,0.1,0,0.0,0.0,1.57542003E9,,,,0,,1,,1.57542003E9
Raw,1039673,1261137969000000000,18,,61301,0.49426607860368676,333.564095198152,269.77685752245185,0.0,0,16,220.0,33,7533376,10,34.0,774.8481496734242,0.1,0,0.0,0.0,1.60143744E9,,,,0,,3,,1.60143744E9
Raw,1039673,1261137969000000000,18,,61301,0.49426607860368676,333.564095198152,269.77685752245185,0.0,0,17,220.0,33,3996157,10,29.0,47.26174876717707,0.1,0,0.0,0.0,1.60424998E9,,,,0,,3,,1.60424998E9
Raw,1039674,1261137969000000000,18,,61301,0.49426607860368676,333.564095198152,269.77685752245185,0.0,0,13,220.0,3,18864909,400,10.0,-600.0610767980106,0.1,0,0.0,0.0,1.57542003E9,,,,0,,1,,1.57542003E9
Raw,1039674,1261137969000000000,18,,61301,0.49426607860368676,333.564095198152,269.77685752245185,0.0,0,7,220.0,17167,129968873069159,10,32.0,172.81270888861414,0.1,0,0.0,0.0,1.56109798E9,,,,0,,5,,1.56109798E9
Raw,1039674,1261137969000000000,18,,61301,0.49426607860368676,333.564095198152,269.77685752245185,0.0,0,18,220.0,33,852050,10,29.0,-503.9522455018291,0.1,0,0.0,0.0,1.60031245E9,,,,0,,3,,1.60031245E9
Raw,1039675,1261137969000000000,18,,61301,0.49426607860368676,333.564095198152,269.77685752245185,0.0,0,9,220.0,3,5844053,25,26.0,648.4985555754974,0.1,0,0.0,0.0,1.57542003E9,,,,0,,1,,1.57542003E9
Raw,1039676,1261137969000000000,18,,61301,0.49426607860368676,333.564095198152,269.77685752245185,0.0,0,23,220.0,3,18943830,25,24.0,735.3899313602597,0.1,0,0.0,0.0,1.57542003E9,,,,0,,1,,1.57542003E9
Raw,1039676,1261137969000000000,18,,61301,0.49426607860368676,333.564095198152,269.77685752245185,0.0,0,9,220.0,32995,43568935924417,10,31.0,-36.48363499521413,0.1,0,0.0,0.0,1.59862502E9,,,,0,,3,,1.59862502E9
Fix,gps,55.770812,37.688827,145.238634,0.000000,4.700000,1577102752000
Raw,1040656,1261137970000000000,18,,61569,0.590301601223473,333.564095198152,269.8593701208005,0.0,0,5,220.0,16399,129969926974976,5,43.0,-42.78881558566354,0.1,0,0.0,0.0,1.57542003E9,,,,0,,1,,1.57542003E9
Raw,1040657,1261137970000000000,18,,61569,0.590301601223473,333.564095198152,269.8593701208005,0.0,0,8,220.0,3,89447,10,28.0,-401.4564476616215,0.1,0,0.0,0.0,1.57542003E9,,,,0,,1,,1.57542003E9
Raw,1040658,1261137970000000000,18,,61569,0.590301601223473,333.564095198152,269.8593701208005,0.0,0,7,220.0,16399,129969931390100,10,35.0,98.14483757363632,0.1,0,0.0,0.0,1.57542003E9,,,,0,,1,,1.57542003E9
Raw,1040659,1261137970000000000,18,,61569,0.590301601223473,333.564095198152,269.8593701208005,0.0,0,30,220.0,3,9568715,5,39.0,-294.52882159966975,0.1,0,0.0,0.0,1.57542003E9,,,,0,,1,,1.57542003E9
Raw,1040660,1261137970000000000,18,,61569,0.590301601223473,333.564095198152,269.8593701208005,0.0,0,27,220.0,16399,129969921426017,10,33.0,-90.93569142278284,0.1,0,0.0,0.0,1.57542003E9,,,,0,,1,,1.57542003E9
Raw,1040662,1261137970000000000,18,,61569,0.590301601223473,333.564095198152,269.8593701208005,0.0,0,16,220.0,3,17637310,25,21.0,778.1612011080142,0.1,0,0.0,0.0,1.57542003E9,,,,0,,1,,1.57542003E9
Raw,1040663,1261137970000000000,18,,61569,0.590301601223473,333.564095198152,269.8593701208005,0.0,0,28,220.0,3,18949857,10,31.0,-619.4810295186471,0.1,0,0.0,0.0,1.57542003E9,,,,0,,1,,1.57542003E9
Raw,1040664,1261137970000000000,18,,61569,0.590301601223473,333.564095198152,269.8593701208005,0.0,0,4,220.0,3,16374189,25,20.0,777.3453196452465,0.1,0,0.0,0.0,1.57542003E9,,,,0,,1,,1.57542003E9
Raw,1040665,1261137970000000000,18,,61569,0.590301601223473,333.564095198152,269.8593701208005,0.0,0,16,220.0,33,7530788,10,35.0,774.5173290135004,0.1,0,0.0,0.0,1.60143744E9,,,,0,,3,,1.60143744E9
Raw,1040666,1261137970000000000,18,,61569,0.590301601223473,333.564095198152,269.8593701208005,0.0,0,17,220.0,33,3995993,10,33.0,47.350770167820066,0.1,0,0.0,0.0,1.60424998E9,,,,0,,3,,1.60424998E9
Raw,1040667,1261137970000000000,18,,61569,0.590301601223473,333.564095198152,269.8593701208005,0.0,0,13,220.0,3,18866926,400,10.0,-600.4361190833151,0.1,0,0.0,0.0,1.57542003E9,,,,0,,1,,1.57542003E9
Raw,1040668,1261137970000000000,18,,61569,0.590301601223473,333.564095198152,269.8593701208005,0.0,0,7,220.0,17167,129969873068582,10,30.0,172.78762507670237,0.1,0,0.0,0.0,1.56109798E9,,,,0,,5,,1.56109798E9
Raw,1040668,1261137970000000000,18,,61569,0.590301601223473,333.564095198152,269.8593701208005,0.0,0,18,220.0,33,853740,10,33.0,-503.97527529123977,0.1,0,0.0,0.0,1.60031245E9,,,,0,,3,,1.60031245E9
Raw,1040669,1261137970000000000,18,,61569,0.590301601223473,333.564095198152,269.8593701208005,0.0,0,9,220.0,3,5841873,25,27.0,648.9426845975686,0.1,0,0.0,0.0,1.57542003E9,,,,0,,1,,1.57542003E9
Raw,1040669,1261137970000000000,18,,61569,0.590301601223473,333.564095198152,269.8593701208005,0.0,0,23,220.0,3,18941351,25,23.0,734.8624596081208,0.1,0,0.0,0.0,1.57542003E9,,,,0,,1,,1.57542003E9
Raw,1040669,1261137970000000000,18,,61569,0.590301601223473,333.564095198152,269.8593701208005,0.0,0,9,220.0,32995,43569935924532,10,34.0,-36.0519781684842,0.1,0,0.0,0.0,1.59862502E9,,,,0,,3,,1.59862502E9
Fix,gps,55.770812,37.688827,145.238634,0.000000,4.900000,1577102753000
Raw,1041679,1261137971000000000,18,,61836,0.1881663367166766,333.564095198152,269.5942527298252,0.0,0,5,220.0,16399,129970926975117,5,43.0,-42.79210543027148,0.1,0,0.0,0.0,1.57542003E9,,,,0,,1,,1.57542003E9
Raw,1041680,1261137971000000000,18,,61836,0.1881663367166766,333.564095198152,269.5942527298252,0.0,0,8,220.0,3,90793,25,27.0,-401.4290322898887,0.1,0,0.0,0.0,1.57542003E9,,,,0,,1,,1.57542003E9
Raw,1041681,1261137971000000000,18,,61836,0.1881663367166766,333.564095198152,269.5942527298252,0.0,0,7,220.0,16399,129970931389773,10,35.0,98.31261964864098,0.1,0,0.0,0.0,1.57542003E9,,,,0,,1,,1.57542003E9
Raw,1041683,1261137971000000000,18,,61836,0.1881663367166766,333.564095198152,269.5942527298252,0.0,0,30,220.0,3,9569702,5,39.0,-294.5617200457491,0.1,0,0.0,0.0,1.57542003E9,,,,0,,1,,1.57542003E9
Raw,1041684,1261137971000000000,18,,61836,0.1881663367166766,333.564095198152,269.5942527298252,0.0,0,27,220.0,16399,129970921426316,10,33.0,-90.74597705039196,0.1,0,0.0,0.0,1.57542003E9,,,,0,,1,,1.57542003E9
Raw,1041685,1261137971000000000,18,,61836,0.1881663367166766,333.564095198152,269.5942527298252,0.0,0,16,220.0,3,17634590,25,18.0,774.3899425724521,0.1,0,0.0,0.0,1.57542003E9,,,,0,,1,,1.57542003E9
Raw,1041685,1261137971000000000,18,,61836,0.1881663367166766,333.564095198152,269.5942527298252,0.0,0,28,220.0,3,18951928,10,31.0,-619.6970626479015,0.1,0,0.0,0.0,1.57542003E9,,,,0,,1,,1.57542003E9
Raw,1041686,1261137971000000000,18,,61836,0.1881663367166766,333.564095198152,269.5942527298252,0.0,0,4,220.0,3,16371586,25,18.0,776.8057851295453,0.1,0,0.0,0.0,1.57542003E9,,,,0,,1,,1.57542003E9
Raw,1041686,1261137971000000000,18,,61836,0.1881663367166766,333.564095198152,269.5942527298252,0.0,0,16,220.0,33,7528200,10,36.0,774.4223978676093,0.1,0,0.0,0.0,1.60143744E9,,,,0,,3,,1.60143744E9
Raw,1041687,1261137971000000000,18,,61836,0.1881663367166766,333.564095198152,269.5942527298252,0.0,0,17,220.0,33,3995828,10,35.0,47.59773276315226,0.1,0,0.0,0.0,1.60424998E9,,,,0,,3,,1.60424998E9
Raw,1041688,1261137971000000000,18,,61836,0.1881663367166766,333.564095198152,269.5942527298252,0.0,0,13,220.0,3,18868932,400,10.0,-600.562229793286,0.1,0,0.0,0.0,1.57542003E9,,,,0,,1,,1.57542003E9
Raw,1041688,1261137971000000000,18,,61836,0.1881663367166766,333.564095198152,269.5942527298252,0.0,0,7,220.0,17167,129970873068006,10,33.0,172.72860434279232,0.1,0,0.0,0.0,1.56109798E9,,,,0,,5,,1.56109798E9
Raw,1041689,1261137971000000000,18,,61836,0.1881663367166766,333.564095198152,269.5942527298252,0.0,0,18,220.0,33,855433,10,36.0,-503.9205795413895,0.1,0,0.0,0.0,1.60031245E9,,,,0,,3,,1.60031245E9
Raw,1041690,1261137971000000000,18,,61836,0.1881663367166766,333.564095198152,269.5942527298252,0.0,0,9,220.0,3,5839714,25,20.0,649.3199201126117,0.1,0,0.0,0.0,1.57542003E9,,,,0,,1,,1.57542003E9
Raw,1041690,1261137971000000000,18,,61836,0.1881663367166766,333.564095198152,269.5942527298252,0.0,0,23,220.0,3,18938840,25,25.0,734.5641803636681,0.1,0,0.0,0.0,1.57542003E9,,,,0,,1,,1.57542003E9
Raw,1041690,1261137971000000000,18,,61836,0.1881663367166766,333.564095198152,269.5942527298252,0.0,0,9,220.0,32995,43570935924651,10,34.0,-36.054855880662394,0.1,0,0.0,0.0,1.59862502E9,,,,0,,3,,1.59862502E9
Fix,gps,55.770812,37.688827,145.238634,0.000000,4.900000,1577102754000
Raw,1042666,1261137972000000000,18,,62104,0.25022658977104584,333.564095198152,269.4186168579452,0.0,0,5,220.0,16399,129971926975258,5,43.0,-42.730694997590035,0.1,0,0.0,0.0,1.57542003E9,,,,0,,1,,1.57542003E9
Raw,1042666,1261137972000000000,18,,62104,0.25022658977104584,333.564095198152,269.4186168579452,0.0,0,8,220.0,3,92136,25,27.0,-401.4356119791046,0.1,0,0.0,0.0,1.57542003E9,,,,0,,1,,1.57542003E9
Raw,1042667,1261137972000000000,18,,62104,0.25022658977104584,333.564095198152,269.4186168579452,0.0,0,7,220.0,16399,129971931389450,10,35.0,98.35538762854412,0.1,0,0.0,0.0,1.57542003E9,,,,0,,1,,1.57542003E9
Raw,1042667,1261137972000000000,18,,62104,0.25022658977104584,333.564095198152,269.4186168579452,0.0,0,30,220.0,3,9570689,5,38.0,-294.5913286472205,0.1,0,0.0,0.0,1.57542003E9,,,,0,,1,,1.57542003E9
Raw,1042668,1261137972000000000,18,,62104,0.25022658977104584,333.564095198152,269.4186168579452,0.0,0,27,220.0,16399,129971921426619,10,33.0,-90.77339242212474,0.1,0,0.0,0.0,1.57542003E9,,,,0,,1,,1.57542003E9
Raw,1042668,1261137972000000000,18,,62104,0.25022658977104584,333.564095198152,269.4186168579452,0.0,0,16,220.0,3,17631944,400,17.0,777.0700693130493,0.1,0,0.0,0.0,1.57542003E9,,,,0,,1,,1.57542003E9
Raw,1042669,1261137972000000000,18,,62104,0.25022658977104584,333.564095198152,269.4186168579452,0.0,0,28,220.0,3,18953993,10,31.0,-619.7277678642422,0.1,0,0.0,0.0,1.57542003E9,,,,0,,1,,1.57542003E9
Raw,1042669,1261137972000000000,18,,62104,0.25022658977104584,333.564095198152,269.4186168579452,0.0,0,4,220.0,3,16368992,400,16.0,775.1159016159363,0.1,0,0.0,0.0,1.57542003E9,,,,0,,1,,1.57542003E9
Raw,1042670,1261137972000000000,18,,62104,0.25022658977104584,333.564095198152,269.4186168579452,0.0,0,16,220.0,33,7525611,10,36.0,774.4597949856876,0.1,0,0.0,0.0,1.60143744E9,,,,0,,3,,1.60143744E9
Raw,1042670,1261137972000000000,18,,62104,0.25022658977104584,333.564095198152,269.4186168579452,0.0,0,17,220.0,33,3995664,10,35.0,47.75854561592671,0.1,0,0.0,0.0,1.60424998E9,,,,0,,3,,1.60424998E9
Raw,1042671,1261137972000000000,18,,62104,0.25022658977104584,333.564095198152,269.4186168579452,0.0,0,13,220.0,3,18870941,400,10.0,-600.4273461643606,0.1,0,0.0,0.0,1.57542003E9,,,,0,,1,,1.57542003E9
Raw,1042672,1261137972000000000,18,,62104,0.25022658977104584,333.564095198152,269.4186168579452,0.0,0,7,220.0,17167,129971873067429,10,32.0,172.8009047418321,0.1,0,0.0,0.0,1.56109798E9,,,,0,,5,,1.56109798E9
Raw,1042673,1261137972000000000,18,,62104,0.25022658977104584,333.564095198152,269.4186168579452,0.0,0,18,220.0,33,857120,10,37.0,-503.83709655477594,0.1,0,0.0,0.0,1.60031245E9,,,,0,,3,,1.60031245E9
Raw,1042674,1261137972000000000,18,,62104,0.25022658977104584,333.564095198152,269.4186168579452,0.0,0,9,220.0,3,5837550,25,21.0,650.6917853141204,0.1,0,0.0,0.0,1.57542003E9,,,,0,,1,,1.57542003E9
Raw,1042674,1261137972000000000,18,,62104,0.25022658977104584,333.564095198152,269.4186168579452,0.0,0,23,220.0,3,18936356,25,26.0,734.3415675451979,0.1,0,0.0,0.0,1.57542003E9,,,,0,,1,,1.57542003E9
Raw,1042675,1261137972000000000,18,,62104,0.25022658977104584,333.564095198152,269.4186168579452,0.0,0,9,220.0,32995,43571935924766,10,34.0,-35.870682301257624,0.1,0,0.0,0.0,1.59862502E9,,,,0,,3,,1.59862502E9
Fix,gps,55.770812,37.688827,145.238634,0.000000,4.900000,1577102755000
Raw,1043664,1261137973000000000,18,,62374,0.9823712571596843,333.564095198152,268.9324523780132,0.0,0,5,220.0,16399,129972926975399,5,43.0,-42.814037727657706,0.1,0,0.0,0.0,1.57542003E9,,,,0,,1,,1.57542003E9
Raw,1043664,1261137973000000000,18,,62374,0.9823712571596843,333.564095198152,268.9324523780132,0.0,0,8,220.0,3,93485,25,26.0,-401.4586408913601,0.1,0,0.0,0.0,1.57542003E9,,,,0,,1,,1.57542003E9
Raw,1043665,1261137973000000000,18,,62374,0.9823712571596843,333.564095198152,268.9324523780132,0.0,0,7,220.0,3,11389124,10,36.0,98.31810272298753,0.1,0,0.0,0.0,1.57542003E9,,,,0,,1,,1.57542003E9
Raw,1043665,1261137973000000000,18,,62374,0.9823712571596843,333.564095198152,268.9324523780132,0.0,0,30,220.0,3,9571676,10,37.0,-294.6790578367654,0.1,0,0.0,0.0,1.57542003E9,,,,0,,1,,1.57542003E9
Raw,1043666,1261137973000000000,18,,62374,0.9823712571596843,333.564095198152,268.9324523780132,0.0,0,27,220.0,3,1426924,10,33.0,-90.760233043693,0.1,0,0.0,0.0,1.57542003E9,,,,0,,1,,1.57542003E9
Raw,1043666,1261137973000000000,18,,62374,0.9823712571596843,333.564095198152,268.9324523780132,0.0,0,16,220.0,3,17629377,400,16.0,776.1028549983166,0.1,0,0.0,0.0,1.57542003E9,,,,0,,1,,1.57542003E9
Raw,1043667,1261137973000000000,18,,62374,0.9823712571596843,333.564095198152,268.9324523780132,0.0,0,28,220.0,3,18956058,10,30.0,-619.7584730805829,0.1,0,0.0,0.0,1.57542003E9,,,,0,,1,,1.57542003E9
Raw,1043668,1261137973000000000,18,,62374,0.9823712571596843,333.564095198152,268.9324523780132,0.0,0,4,220.0,3,16366407,400,16.0,773.2670089462772,0.1,0,0.0,0.0,1.57542003E9,,,,0,,1,,1.57542003E9
Raw,1043668,1261137973000000000,18,,62374,0.9823712571596843,333.564095198152,268.9324523780132,0.0,0,16,220.0,99,927523027,10,36.0,774.4684250898596,0.1,0,0.0,0.0,1.60143744E9,,,,0,,3,,1.60143744E9
Raw,1043669,1261137973000000000,18,,62374,0.9823712571596843,333.564095198152,268.9324523780132,0.0,0,17,220.0,33,3995499,10,36.0,47.90787183636014,0.1,0,0.0,0.0,1.60424998E9,,,,0,,3,,1.60424998E9
Raw,1043669,1261137973000000000,18,,62374,0.9823712571596843,333.564095198152,268.9324523780132,0.0,0,13,220.0,3,18872945,400,10.0,-600.4536649212241,0.1,0,0.0,0.0,1.57542003E9,,,,0,,1,,1.57542003E9
Raw,1043670,1261137973000000000,18,,62374,0.9823712571596843,333.564095198152,268.9324523780132,0.0,0,7,220.0,17167,129972873066853,10,33.0,172.4807172603701,0.1,0,0.0,0.0,1.56109798E9,,,,0,,5,,1.56109798E9
Raw,1043672,1261137973000000000,18,,62374,0.9823712571596843,333.564095198152,268.9324523780132,0.0,0,18,220.0,33,858809,10,37.0,-503.9349731597711,0.1,0,0.0,0.0,1.60031245E9,,,,0,,3,,1.60031245E9
Raw,1043673,1261137973000000000,18,,62374,0.9823712571596843,333.564095198152,268.9324523780132,0.0,0,9,220.0,3,5835364,25,23.0,650.5645779892802,0.1,0,0.0,0.0,1.57542003E9,,,,0,,1,,1.57542003E9
Raw,1043673,1261137973000000000,18,,62374,0.9823712571596843,333.564095198152,268.9324523780132,0.0,0,23,220.0,3,18933863,25,27.0,734.7999525605701,0.1,0,0.0,0.0,1.57542003E9,,,,0,,1,,1.57542003E9
Raw,1043674,1261137973000000000,18,,62374,0.9823712571596843,333.564095198152,268.9324523780132,0.0,0,9,220.0,32995,43572935924882,10,34.0,-35.88794857432682,0.1,0,0.0,0.0,1.59862502E9,,,,0,,3,,1.59862502E9
Fix,gps,55.770812,37.688827,145.238634,0.000000,4.700000,1577102756000
Raw,1044654,1261137974000000000,18,,62644,0.6551284289671457,333.564095198152,268.55503953714134,0.0,0,5,220.0,16399,129973926975542,5,43.0,-42.74933745036833,0.1,0,0.0,0.0,1.57542003E9,,,,0,,1,,1.57542003E9
Raw,1044655,1261137974000000000,18,,62644,0.6551284289671457,333.564095198152,268.55503953714134,0.0,0,8,220.0,3,94828,25,24.0,-401.1197868967429,0.1,0,0.0,0.0,1.57542003E9,,,,0,,1,,1.57542003E9
Raw,1044656,1261137974000000000,18,,62644,0.6551284289671457,333.564095198152,268.55503953714134,0.0,0,7,220.0,16399,129973931388800,10,35.0,98.15799695206806,0.1,0,0.0,0.0,1.57542003E9,,,,0,,1,,1.57542003E9
Raw,1044657,1261137974000000000,18,,62644,0.6551284289671457,333.564095198152,268.55503953714134,0.0,0,30,220.0,3,9572662,10,37.0,-294.72840550588444,0.1,0,0.0,0.0,1.57542003E9,,,,0,,1,,1.57542003E9
Raw,1044657,1261137974000000000,18,,62644,0.6551284289671457,333.564095198152,268.55503953714134,0.0,0,27,220.0,16399,129973921427228,10,33.0,-90.73939736117609,0.1,0,0.0,0.0,1.57542003E9,,,,0,,1,,1.57542003E9
Raw,1044658,1261137974000000000,18,,62644,0.6551284289671457,333.564095198152,268.55503953714134,0.0,0,16,220.0,3,17626817,400,16.0,774.4667056133039,0.1,0,0.0,0.0,1.57542003E9,,,,0,,1,,1.57542003E9
Raw,1044659,1261137974000000000,18,,62644,0.6551284289671457,333.564095198152,268.55503953714134,0.0,0,28,220.0,3,18958123,10,30.0,-619.857168418821,0.1,0,0.0,0.0,1.57542003E9,,,,0,,1,,1.57542003E9
Raw,1044660,1261137974000000000,18,,62644,0.6551284289671457,333.564095198152,268.55503953714134,0.0,0,4,220.0,3,16363822,400,16.0,772.5103446864523,0.1,0,0.0,0.0,1.57542003E9,,,,0,,1,,1.57542003E9
Raw,1044661,1261137974000000000,18,,62644,0.6551284289671457,333.564095198152,268.55503953714134,0.0,0,16,220.0,99,1927520442,10,37.0,774.4540415829064,0.1,0,0.0,0.0,1.60143744E9,,,,0,,3,,1.60143744E9
Raw,1044662,1261137974000000000,18,,62644,0.6551284289671457,333.564095198152,268.55503953714134,0.0,0,17,220.0,33,3995332,10,36.0,47.994021578917874,0.1,0,0.0,0.0,1.60424998E9,,,,0,,3,,1.60424998E9
Raw,1044663,1261137974000000000,18,,62644,0.6551284289671457,333.564095198152,268.55503953714134,0.0,0,13,220.0,3,18874946,400,11.0,-600.1531924470328,0.1,0,0.0,0.0,1.57542003E9,,,,0,,1,,1.57542003E9
Raw,1044664,1261137974000000000,18,,62644,0.6551284289671457,333.564095198152,268.55503953714134,0.0,0,7,220.0,17167,129973873066277,10,33.0,172.34349405402926,0.1,0,0.0,0.0,1.56109798E9,,,,0,,5,,1.56109798E9
Raw,1044664,1261137974000000000,18,,62644,0.6551284289671457,333.564095198152,268.55503953714134,0.0,0,18,220.0,33,860489,10,37.0,-503.98679018594504,0.1,0,0.0,0.0,1.60031245E9,,,,0,,3,,1.60031245E9
Raw,1044665,1261137974000000000,18,,62644,0.6551284289671457,333.564095198152,268.55503953714134,0.0,0,9,220.0,3,5833188,25,21.0,649.0633122331928,0.1,0,0.0,0.0,1.57542003E9,,,,0,,1,,1.57542003E9
Raw,1044665,1261137974000000000,18,,62644,0.6551284289671457,333.564095198152,268.55503953714134,0.0,0,23,220.0,3,18931384,25,27.0,734.8295611620415,0.1,0,0.0,0.0,1.57542003E9,,,,0,,1,,1.57542003E9
Raw,1044665,1261137974000000000,18,,62644,0.6551284289671457,333.564095198152,268.55503953714134,0.0,0,9,220.0,32995,43573935924999,10,34.0,-35.76420695066424,0.1,0,0.0,0.0,1.59862502E9,,,,0,,3,,1.59862502E9
Fix,gps,55.770812,37.688827,145.238634,0.000000,4.700000,1577102757000
Raw,1045658,1261137975000000000,18,,62914,0.06538046002242481,333.564095198152,268.0516573312423,0.0,0,5,220.0,16399,129974926975684,5,42.0,-42.69012024742551,0.1,0,0.0,0.0,1.57542003E9,,,,0,,1,,1.57542003E9
Raw,1045659,1261137975000000000,18,,62914,0.06538046002242481,333.564095198152,268.0516573312423,0.0,0,8,220.0,3,96187,25,25.0,-401.36323539773,0.1,0,0.0,0.0,1.57542003E9,,,,0,,1,,1.57542003E9
Raw,1045659,1261137975000000000,18,,62914,0.06538046002242481,333.564095198152,268.0516573312423,0.0,0,7,220.0,16399,129974931388475,10,34.0,97.96389612019993,0.1,0,0.0,0.0,1.57542003E9,,,,0,,1,,1.57542003E9
Raw,1045660,1261137975000000000,18,,62914,0.06538046002242481,333.564095198152,268.0516573312423,0.0,0,30,220.0,3,9573643,10,36.0,-294.82490761438385,0.1,0,0.0,0.0,1.57542003E9,,,,0,,1,,1.57542003E9
Raw,1045661,1261137975000000000,18,,62914,0.06538046002242481,333.564095198152,268.0516573312423,0.0,0,27,220.0,16399,129974921427528,10,34.0,-90.87318437523209,0.1,0,0.0,0.0,1.57542003E9,,,,0,,1,,1.57542003E9
Raw,1045662,1261137975000000000,18,,62914,0.06538046002242481,333.564095198152,268.0516573312423,0.0,0,16,220.0,3,17624254,400,13.0,777.4341454496607,0.1,0,0.0,0.0,1.57542003E9,,,,0,,1,,1.57542003E9
Raw,1045663,1261137975000000000,18,,62914,0.06538046002242481,333.564095198152,268.0516573312423,0.0,0,28,220.0,3,18960182,10,31.0,-620.0293369533028,0.1,0,0.0,0.0,1.57542003E9,,,,0,,1,,1.57542003E9
Raw,1045664,1261137975000000000,18,,62914,0.06538046002242481,333.564095198152,268.0516573312423,0.0,0,4,220.0,3,16361204,400,17.0,772.1528482390568,0.1,0,0.0,0.0,1.57542003E9,,,,0,,1,,1.57542003E9
Raw,1045665,1261137975000000000,18,,62914,0.06538046002242481,333.564095198152,268.0516573312423,0.0,0,16,220.0,99,927517858,10,37.0,774.2986997078117,0.1,0,0.0,0.0,1.60143744E9,,,,0,,3,,1.60143744E9
Raw,1045665,1261137975000000000,18,,62914,0.06538046002242481,333.564095198152,268.0516573312423,0.0,0,17,220.0,33,3995169,10,36.0,47.82459375188765,0.1,0,0.0,0.0,1.60424998E9,,,,0,,3,,1.60424998E9
Raw,1045666,1261137975000000000,18,,62914,0.06538046002242481,333.564095198152,268.0516573312423,0.0,0,13,220.0,3,18876946,400,11.0,-600.0281783519313,0.1,0,0.0,0.0,1.57542003E9,,,,0,,1,,1.57542003E9
Raw,1045666,1261137975000000000,18,,62914,0.06538046002242481,333.564095198152,268.0516573312423,0.0,0,7,220.0,17167,129974873065702,10,34.0,172.51022762732515,0.1,0,0.0,0.0,1.56109798E9,,,,0,,5,,1.56109798E9
Raw,1045667,1261137975000000000,18,,62914,0.06538046002242481,333.564095198152,268.0516573312423,0.0,0,18,220.0,33,862172,5,38.0,-503.9551242255054,0.1,0,0.0,0.0,1.60031245E9,,,,0,,3,,1.60031245E9
Raw,1045667,1261137975000000000,18,,62914,0.06538046002242481,333.564095198152,268.0516573312423,0.0,0,9,220.0,3,5830990,25,19.0,648.3570922573563,0.1,0,0.0,0.0,1.57542003E9,,,,0,,1,,1.57542003E9
Raw,1045667,1261137975000000000,18,,62914,0.06538046002242481,333.564095198152,268.0516573312423,0.0,0,23,220.0,3,18928909,10,29.0,734.6332671004348,0.1,0,0.0,0.0,1.57542003E9,,,,0,,1,,1.57542003E9
Raw,1045668,1261137975000000000,18,,62914,0.06538046002242481,333.564095198152,268.0516573312423,0.0,0,9,220.0,32995,43574935925116,10,34.0,-35.951258242247214,0.1,0,0.0,0.0,1.59862502E9,,,,0,,3,,1.59862502E9
Fix,gps,55.770812,37.688827,145.238634,0.000000,4.700000,1577102758000
Raw,1046673,1261137976000000000,18,,63185,0.5233180628856644,333.564095198152,267.56934865782176,0.0,0,5,220.0,16399,129975926975828,5,41.0,-42.74714422062971,0.1,0,0.0,0.0,1.57542003E9,,,,0,,1,,1.57542003E9
Raw,1046674,1261137976000000000,18,,63185,0.5233180628856644,333.564095198152,267.56934865782176,0.0,0,8,220.0,3,97521,25,24.0,-401.22396530932747,0.1,0,0.0,0.0,1.57542003E9,,,,0,,1,,1.57542003E9
Raw,1046675,1261137976000000000,18,,63185,0.5233180628856644,333.564095198152,267.56934865782176,0.0,0,7,220.0,16399,129975931388150,10,32.0,98.17225294536911,0.1,0,0.0,0.0,1.57542003E9,,,,0,,1,,1.57542003E9
Raw,1046676,1261137976000000000,18,,63185,0.5233180628856644,333.564095198152,267.56934865782176,0.0,0,30,220.0,3,9574627,10,36.0,-294.8512263712473,0.1,0,0.0,0.0,1.57542003E9,,,,0,,1,,1.57542003E9
Raw,1046678,1261137976000000000,18,,63185,0.5233180628856644,333.564095198152,267.56934865782176,0.0,0,27,220.0,16399,129975921427829,10,33.0,-91.00368154468015,0.1,0,0.0,0.0,1.57542003E9,,,,0,,1,,1.57542003E9
Raw,1046679,1261137976000000000,18,,63185,0.5233180628856644,333.564095198152,267.56934865782176,0.0,0,28,220.0,3,18962254,10,30.0,-620.3002008260228,0.1,0,0.0,0.0,1.57542003E9,,,,0,,1,,1.57542003E9
Raw,1046680,1261137976000000000,18,,63185,0.5233180628856644,333.564095198152,267.56934865782176,0.0,0,4,220.0,3,16358591,25,19.0,772.174780536443,0.1,0,0.0,0.0,1.57542003E9,,,,0,,1,,1.57542003E9
Raw,1046682,1261137976000000000,18,,63185,0.5233180628856644,333.564095198152,267.56934865782176,0.0,0,16,220.0,99,1927515273,10,35.0,774.3418502286713,0.1,0,0.0,0.0,1.60143744E9,,,,0,,3,,1.60143744E9
Raw,1046683,1261137976000000000,18,,63185,0.5233180628856644,333.564095198152,267.56934865782176,0.0,0,17,220.0,33,3995005,10,35.0,47.793005512949804,0.1,0,0.0,0.0,1.60424998E9,,,,0,,3,,1.60424998E9
Raw,1046683,1261137976000000000,18,,63185,0.5233180628856644,333.564095198152,267.56934865782176,0.0,0,13,220.0,3,18878952,400,10.0,-600.0544971087947,0.1,0,0.0,0.0,1.57542003E9,,,,0,,1,,1.57542003E9
Raw,1046684,1261137976000000000,18,,63185,0.5233180628856644,333.564095198152,267.56934865782176,0.0,0,7,220.0,17167,129975873065127,10,35.0,172.24463432472993,0.1,0,0.0,0.0,1.56109798E9,,,,0,,5,,1.56109798E9
Raw,1046684,1261137976000000000,18,,63185,0.5233180628856644,333.564095198152,267.56934865782176,0.0,0,18,220.0,33,863851,5,39.0,-504.02997104109,0.1,0,0.0,0.0,1.60031245E9,,,,0,,3,,1.60031245E9
Raw,1046685,1261137976000000000,18,,63185,0.5233180628856644,333.564095198152,267.56934865782176,0.0,0,9,220.0,3,5828771,25,20.0,648.7727092928253,0.1,0,0.0,0.0,1.57542003E9,,,,0,,1,,1.57542003E9
Raw,1046685,1261137976000000000,18,,63185,0.5233180628856644,333.564095198152,267.56934865782176,0.0,0,23,220.0,3,18926449,10,29.0,734.5576006744523,0.1,0,0.0,0.0,1.57542003E9,,,,0,,1,,1.57542003E9
Raw,1046685,1261137976000000000,18,,63185,0.5233180628856644,333.564095198152,267.56934865782176,0.0,0,9,220.0,32995,43575935925233,10,33.0,-35.86780458907943,0.1,0,0.0,0.0,1.59862502E9,,,,0,,3,,1.59862502E9
Raw,1046686,1261137976000000000,18,,63185,0.5233180628856644,333.564095198152,267.56934865782176,0.0,0,1,220.0,32995,43575922082209,10,32.0,-711.4952799285853,0.1,0,0.0,0.0,1.60256256E9,,,,0,,3,,1.60256256E9
Fix,gps,55.770812,37.688827,145.238634,0.000000,4.900000,1577102759000
Raw,1047665,1261137977000000000,18,,63450,0.6246343201491982,333.564095198152,267.62692341409394,0.0,0,5,220.0,16399,129976926975970,5,39.0,-42.53659416572191,0.1,0,0.0,0.0,1.57542003E9,,,,0,,1,,1.57542003E9
Raw,1047666,1261137977000000000,18,,63450,0.6246343201491982,333.564095198152,267.62692341409394,0.0,0,8,220.0,3,98851,25,23.0,-400.9563912812155,0.1,0,0.0,0.0,1.57542003E9,,,,0,,1,,1.57542003E9
Raw,1047666,1261137977000000000,18,,63450,0.6246343201491982,333.564095198152,267.62692341409394,0.0,0,7,220.0,16399,129976931387820,10,31.0,98.13058158033527,0.1,0,0.0,0.0,1.57542003E9,,,,0,,1,,1.57542003E9
Raw,1047667,1261137977000000000,18,,63450,0.6246343201491982,333.564095198152,267.62692341409394,0.0,0,30,220.0,3,9575611,5,39.0,-294.6757679921575,0.1,0,0.0,0.0,1.57542003E9,,,,0,,1,,1.57542003E9
Raw,1047668,1261137977000000000,18,,63450,0.6246343201491982,333.564095198152,267.62692341409394,0.0,0,27,220.0,16399,129976921428134,10,31.0,-90.89950313209556,0.1,0,0.0,0.0,1.57542003E9,,,,0,,1,,1.57542003E9
Raw,1047668,1261137977000000000,18,,63450,0.6246343201491982,333.564095198152,267.62692341409394,0.0,0,28,220.0,3,18964319,10,29.0,-620.0666218588594,0.1,0,0.0,0.0,1.57542003E9,,,,0,,1,,1.57542003E9
Raw,1047669,1261137977000000000,18,,63450,0.6246343201491982,333.564095198152,267.62692341409394,0.0,0,4,220.0,3,16355965,25,21.0,772.1013073401991,0.1,0,0.0,0.0,1.57542003E9,,,,0,,1,,1.57542003E9
Raw,1047669,1261137977000000000,18,,63450,0.6246343201491982,333.564095198152,267.62692341409394,0.0,0,16,220.0,99,927512676,10,29.0,774.2958230064211,0.1,0,0.0,0.0,1.60143744E9,,,,0,,3,,1.60143744E9
Raw,1047669,1261137977000000000,18,,63450,0.6246343201491982,333.564095198152,267.62692341409394,0.0,0,17,220.0,33,3994850,25,27.0,48.12037453466923,0.1,0,0.0,0.0,1.60424998E9,,,,0,,3,,1.60424998E9
Raw,1047670,1261137977000000000,18,,63450,0.6246343201491982,333.564095198152,267.62692341409394,0.0,0,13,220.0,3,18880952,400,13.0,-599.8077587631997,0.1,0,0.0,0.0,1.57542003E9,,,,0,,1,,1.57542003E9
Raw,1047670,1261137977000000000,18,,63450,0.6246343201491982,333.564095198152,267.62692341409394,0.0,0,7,220.0,17167,129976873064551,10,34.0,172.22840362290466,0.1,0,0.0,0.0,1.56109798E9,,,,0,,5,,1.56109798E9
Raw,1047670,1261137977000000000,18,,63450,0.6246343201491982,333.564095198152,267.62692341409394,0.0,0,18,220.0,33,865525,10,33.0,-503.96376039653444,0.1,0,0.0,0.0,1.60031245E9,,,,0,,3,,1.60031245E9
Raw,1047670,1261137977000000000,18,,63450,0.6246343201491982,333.564095198152,267.62692341409394,0.0,0,9,220.0,3,5826556,25,21.0,648.6893665627576,0.1,0,0.0,0.0,1.57542003E9,,,,0,,1,,1.57542003E9
Raw,1047671,1261137977000000000,18,,63450,0.6246343201491982,333.564095198152,267.62692341409394,0.0,0,23,220.0,3,18923998,10,28.0,734.3306013965048,0.1,0,0.0,0.0,1.57542003E9,,,,0,,1,,1.57542003E9
Raw,1047671,1261137977000000000,18,,63450,0.6246343201491982,333.564095198152,267.62692341409394,0.0,0,9,220.0,32995,43576935925343,10,30.0,-35.77284008719884,0.1,0,0.0,0.0,1.59862502E9,,,,0,,3,,1.59862502E9
Raw,1047671,1261137977000000000,18,,63450,0.6246343201491982,333.564095198152,267.62692341409394,0.0,0,1,220.0,32995,43576922084589,10,34.0,-711.5585229313588,0.1,0,0.0,0.0,1.60256256E9,,,,0,,3,,1.60256256E9
Fix,gps,55.770812,37.688827,145.238634,0.000000,4.900000,1577102760000
Raw,1048664,1261137978000000000,18,,63715,0.7860085918437107,333.564095198152,267.51345471330075,0.0,0,5,220.0,16399,129977926976114,10,37.0,-42.4400920572225,0.1,0,0.0,0.0,1.57542003E9,,,,0,,1,,1.57542003E9
Raw,1048665,1261137978000000000,18,,63715,0.7860085918437107,333.564095198152,267.51345471330075,0.0,0,8,220.0,3,100188,25,21.0,-401.25028406619094,0.1,0,0.0,0.0,1.57542003E9,,,,0,,1,,1.57542003E9
Raw,1048665,1261137978000000000,18,,63715,0.7860085918437107,333.564095198152,267.51345471330075,0.0,0,7,220.0,16399,129977931387485,10,35.0,98.36854700697586,0.1,0,0.0,0.0,1.57542003E9,,,,0,,1,,1.57542003E9
Raw,1048665,1261137978000000000,18,,63715,0.7860085918437107,333.564095198152,267.51345471330075,0.0,0,30,220.0,3,9576594,5,40.0,-294.66370522859506,0.1,0,0.0,0.0,1.57542003E9,,,,0,,1,,1.57542003E9
Raw,1048665,1261137978000000000,18,,63715,0.7860085918437107,333.564095198152,267.51345471330075,0.0,0,27,220.0,16399,129977921428432,10,31.0,-90.66702077980153,0.1,0,0.0,0.0,1.57542003E9,,,,0,,1,,1.57542003E9
Raw,1048666,1261137978000000000,18,,63715,0.7860085918437107,333.564095198152,267.51345471330075,0.0,0,16,220.0,3,17616686,25,19.0,779.572544444818,0.1,0,0.0,0.0,1.57542003E9,,,,0,,1,,1.57542003E9
Raw,1048666,1261137978000000000,18,,63715,0.7860085918437107,333.564095198152,267.51345471330075,0.0,0,28,220.0,3,18966384,10,30.0,-620.005211426178,0.1,0,0.0,0.0,1.57542003E9,,,,0,,1,,1.57542003E9
Raw,1048666,1261137978000000000,18,,63715,0.7860085918437107,333.564095198152,267.51345471330075,0.0,0,4,220.0,3,16353412,25,21.0,772.6189095585141,0.1,0,0.0,0.0,1.57542003E9,,,,0,,1,,1.57542003E9
Raw,1048667,1261137978000000000,18,,63715,0.7860085918437107,333.564095198152,267.51345471330075,0.0,0,16,220.0,99,1927510081,25,26.0,773.8470575894811,0.1,0,0.0,0.0,1.60143744E9,,,,0,,3,,1.60143744E9
Raw,1048667,1261137978000000000,18,,63715,0.7860085918437107,333.564095198152,267.51345471330075,0.0,0,17,220.0,33,3994695,25,27.0,47.86192530699601,0.1,0,0.0,0.0,1.60424998E9,,,,0,,3,,1.60424998E9
Raw,1048667,1261137978000000000,18,,63715,0.7860085918437107,333.564095198152,267.51345471330075,0.0,0,13,220.0,3,18882949,400,12.0,-599.6498462220188,0.1,0,0.0,0.0,1.57542003E9,,,,0,,1,,1.57542003E9
Raw,1048667,1261137978000000000,18,,63715,0.7860085918437107,333.564095198152,267.51345471330075,0.0,0,7,220.0,17167,129977873063974,10,33.0,172.1310194119531,0.1,0,0.0,0.0,1.56109798E9,,,,0,,5,,1.56109798E9
Raw,1048668,1261137978000000000,18,,63715,0.7860085918437107,333.564095198152,267.51345471330075,0.0,0,18,220.0,33,867199,25,24.0,-503.8054305943363,0.1,0,0.0,0.0,1.60031245E9,,,,0,,3,,1.60031245E9
Raw,1048669,1261137978000000000,18,,63715,0.7860085918437107,333.564095198152,267.51345471330075,0.0,0,9,220.0,3,5824412,25,26.0,648.4305654536001,0.1,0,0.0,0.0,1.57542003E9,,,,0,,1,,1.57542003E9
Raw,1048669,1261137978000000000,18,,63715,0.7860085918437107,333.564095198152,267.51345471330075,0.0,0,23,220.0,3,18921551,25,22.0,734.1858482337557,0.1,0,0.0,0.0,1.57542003E9,,,,0,,1,,1.57542003E9
Raw,1048669,1261137978000000000,18,,63715,0.7860085918437107,333.564095198152,267.51345471330075,0.0,0,9,220.0,32995,43577935925456,10,30.0,-35.78722864808984,0.1,0,0.0,0.0,1.59862502E9,,,,0,,3,,1.59862502E9
Fix,gps,55.770812,37.688827,145.238634,0.000000,4.900000,1577102761000
Raw,1049654,1261137979000000000,18,,63985,0.7103381484121201,333.564095198152,267.3436909949359,0.0,0,5,220.0,16399,129978926976254,10,37.0,-42.10891436669044,0.1,0,0.0,0.0,1.57542003E9,,,,0,,1,,1.57542003E9
Raw,1049655,1261137979000000000,18,,63985,0.7103381484121201,333.564095198152,267.3436909949359,0.0,0,8,220.0,3,101522,25,25.0,-401.7163453856483,0.1,0,0.0,0.0,1.57542003E9,,,,0,,1,,1.57542003E9
Raw,1049655,1261137979000000000,18,,63985,0.7103381484121201,333.564095198152,267.3436909949359,0.0,0,7,220.0,16399,129978931387159,10,33.0,98.12619512085803,0.1,0,0.0,0.0,1.57542003E9,,,,0,,1,,1.57542003E9
Raw,1049655,1261137979000000000,18,,63985,0.7103381484121201,333.564095198152,267.3436909949359,0.0,0,30,220.0,3,9577578,5,38.0,-294.7931057831738,0.1,0,0.0,0.0,1.57542003E9,,,,0,,1,,1.57542003E9
Raw,1049655,1261137979000000000,18,,63985,0.7103381484121201,333.564095198152,267.3436909949359,0.0,0,27,220.0,16399,129978921428730,10,31.0,-90.38299752864987,0.1,0,0.0,0.0,1.57542003E9,,,,0,,1,,1.57542003E9
Raw,1049656,1261137979000000000,18,,63985,0.7103381484121201,333.564095198152,267.3436909949359,0.0,0,16,220.0,3,17613705,25,19.0,776.9428619882092,0.1,0,0.0,0.0,1.57542003E9,,,,0,,1,,1.57542003E9
Raw,1049656,1261137979000000000,18,,63985,0.7103381484121201,333.564095198152,267.3436909949359,0.0,0,28,220.0,3,18968448,10,30.0,-619.9975351220928,0.1,0,0.0,0.0,1.57542003E9,,,,0,,1,,1.57542003E9
Raw,1049656,1261137979000000000,18,,63985,0.7103381484121201,333.564095198152,267.3436909949359,0.0,0,4,220.0,3,16350864,25,21.0,774.2013248149306,0.1,0,0.0,0.0,1.57542003E9,,,,0,,1,,1.57542003E9
Raw,1049656,1261137979000000000,18,,63985,0.7103381484121201,333.564095198152,267.3436909949359,0.0,0,16,220.0,99,927507500,25,27.0,774.2670559925147,0.1,0,0.0,0.0,1.60143744E9,,,,0,,3,,1.60143744E9
Raw,1049656,1261137979000000000,18,,63985,0.7103381484121201,333.564095198152,267.3436909949359,0.0,0,17,220.0,33,3994533,25,25.0,48.663117912783,0.1,0,0.0,0.0,1.60424998E9,,,,0,,3,,1.60424998E9
Raw,1049657,1261137979000000000,18,,63985,0.7103381484121201,333.564095198152,267.3436909949359,0.0,0,13,220.0,3,18884952,400,11.0,-599.3197651463561,0.1,0,0.0,0.0,1.57542003E9,,,,0,,1,,1.57542003E9
Raw,1049657,1261137979000000000,18,,63985,0.7103381484121201,333.564095198152,267.3436909949359,0.0,0,7,220.0,17167,129978873063400,10,30.0,172.29480194855347,0.1,0,0.0,0.0,1.56109798E9,,,,0,,5,,1.56109798E9
Raw,1049657,1261137979000000000,18,,63985,0.7103381484121201,333.564095198152,267.3436909949359,0.0,0,18,220.0,33,868857,10,30.0,-503.7133114366938,0.1,0,0.0,0.0,1.60031245E9,,,,0,,3,,1.60031245E9
Raw,1049657,1261137979000000000,18,,63985,0.7103381484121201,333.564095198152,267.3436909949359,0.0,0,9,220.0,3,5822278,25,25.0,649.254123220453,0.1,0,0.0,0.0,1.57542003E9,,,,0,,1,,1.57542003E9
Raw,1049658,1261137979000000000,18,,63985,0.7103381484121201,333.564095198152,267.3436909949359,0.0,0,23,220.0,3,18919120,25,20.0,734.2198432947043,0.1,0,0.0,0.0,1.57542003E9,,,,0,,1,,1.57542003E9
Raw,1049658,1261137979000000000,18,,63985,0.7103381484121201,333.564095198152,267.3436909949359,0.0,0,9,220.0,32995,43578935925575,10,30.0,-35.55988938601207,0.1,0,0.0,0.0,1.59862502E9,,,,0,,3,,1.59862502E9
Fix,gps,55.770812,37.688827,145.238634,0.000000,4.900000,1577102762000
Raw,1050664,1261137980000000000,18,,64258,0.014893501698679756,333.564095198152,268.7267255716508,0.0,0,5,220.0,16399,129979926976394,5,43.0,-41.7700603720732,0.1,0,0.0,0.0,1.57542003E9,,,,0,,1,,1.57542003E9
Raw,1050665,1261137980000000000,18,,64258,0.014893501698679756,333.564095198152,268.7267255716508,0.0,0,8,220.0,3,102858,25,25.0,-400.83028057124466,0.1,0,0.0,0.0,1.57542003E9,,,,0,,1,,1.57542003E9
Raw,1050666,1261137980000000000,18,,64258,0.014893501698679756,333.564095198152,268.7267255716508,0.0,0,7,220.0,16399,129979931386828,10,36.0,98.49794756155461,0.1,0,0.0,0.0,1.57542003E9,,,,0,,1,,1.57542003E9
Raw,1050666,1261137980000000000,18,,64258,0.014893501698679756,333.564095198152,268.7267255716508,0.0,0,30,220.0,3,9578557,10,34.0,-293.78202687366866,0.1,0,0.0,0.0,1.57542003E9,,,,0,,1,,1.57542003E9
Raw,1050667,1261137980000000000,18,,64258,0.014893501698679756,333.564095198152,268.7267255716508,0.0,0,27,220.0,16399,129979921429029,10,33.0,-90.13845241279341,0.1,0,0.0,0.0,1.57542003E9,,,,0,,1,,1.57542003E9
Raw,1050668,1261137980000000000,18,,64258,0.014893501698679756,333.564095198152,268.7267255716508,0.0,0,16,220.0,3,17611166,25,21.0,778.287311817985,0.1,0,0.0,0.0,1.57542003E9,,,,0,,1,,1.57542003E9
Raw,1050668,1261137980000000000,18,,64258,0.014893501698679756,333.564095198152,268.7267255716508,0.0,0,28,220.0,3,18970518,10,30.0,-619.6444251341745,0.1,0,0.0,0.0,1.57542003E9,,,,0,,1,,1.57542003E9
Raw,1050669,1261137980000000000,18,,64258,0.014893501698679756,333.564095198152,268.7267255716508,0.0,0,4,220.0,3,16348257,25,21.0,775.4054079414345,0.1,0,0.0,0.0,1.57542003E9,,,,0,,1,,1.57542003E9
Raw,1050670,1261137980000000000,18,,64258,0.014893501698679756,333.564095198152,268.7267255716508,0.0,0,16,220.0,99,1927504918,10,33.0,774.5518494301882,0.1,0,0.0,0.0,1.60143744E9,,,,0,,3,,1.60143744E9
Raw,1050671,1261137980000000000,18,,64258,0.014893501698679756,333.564095198152,268.7267255716508,0.0,0,17,220.0,33,3994370,10,32.0,48.663117912783,0.1,0,0.0,0.0,1.60424998E9,,,,0,,3,,1.60424998E9
Raw,1050671,1261137980000000000,18,,64258,0.014893501698679756,333.564095198152,268.7267255716508,0.0,0,13,220.0,3,18886959,400,13.0,-598.8613801309839,0.1,0,0.0,0.0,1.57542003E9,,,,0,,1,,1.57542003E9
Raw,1050672,1261137980000000000,18,,64258,0.014893501698679756,333.564095198152,268.7267255716508,0.0,0,7,220.0,17167,129979873062831,10,29.0,172.08822937986832,0.1,0,0.0,0.0,1.56109798E9,,,,0,,5,,1.56109798E9
Raw,1050672,1261137980000000000,18,,64258,0.014893501698679756,333.564095198152,268.7267255716508,0.0,0,18,220.0,33,870530,10,32.0,-503.48301354258746,0.1,0,0.0,0.0,1.60031245E9,,,,0,,3,,1.60031245E9
Raw,1050674,1261137980000000000,18,,64258,0.014893501698679756,333.564095198152,268.7267255716508,0.0,0,9,220.0,3,5820139,10,35.0,649.2278044635896,0.1,0,0.0,0.0,1.57542003E9,,,,0,,1,,1.57542003E9
Raw,1050674,1261137980000000000,18,,64258,0.014893501698679756,333.564095198152,268.7267255716508,0.0,0,23,220.0,3,18916713,25,22.0,733.8656366919167,0.1,0,0.0,0.0,1.57542003E9,,,,0,,1,,1.57542003E9
Raw,1050675,1261137980000000000,18,,64258,0.014893501698679756,333.564095198152,268.7267255716508,0.0,0,9,220.0,32995,43579935925698,10,33.0,-35.030390345223346,0.1,0,0.0,0.0,1.59862502E9,,,,0,,3,,1.59862502E9
Fix,gps,55.770812,37.688827,145.238634,0.000000,4.900000,1577102763000
Raw,1051649,1261137981000000000,18,,64527,0.8038362742663594,333.564095198152,269.18725907575686,0.0,0,5,220.0,16399,129980926976534,5,42.0,-41.439979296410456,0.1,0,0.0,0.0,1.57542003E9,,,,0,,1,,1.57542003E9
Raw,1051650,1261137981000000000,18,,64527,0.8038362742663594,333.564095198152,269.18725907575686,0.0,0,8,220.0,3,104194,10,32.0,-400.7206190843135,0.1,0,0.0,0.0,1.57542003E9,,,,0,,1,,1.57542003E9
Raw,1051650,1261137981000000000,18,,64527,0.8038362742663594,333.564095198152,269.18725907575686,0.0,0,7,220.0,16399,129980931386497,10,33.0,98.96949195535854,0.1,0,0.0,0.0,1.57542003E9,,,,0,,1,,1.57542003E9
Raw,1051651,1261137981000000000,18,,64527,0.8038362742663594,333.564095198152,269.18725907575686,0.0,0,30,220.0,3,9579528,10,32.0,-293.60876172431745,0.1,0,0.0,0.0,1.57542003E9,,,,0,,1,,1.57542003E9
Raw,1051653,1261137981000000000,18,,64527,0.8038362742663594,333.564095198152,269.18725907575686,0.0,0,27,220.0,16399,129980921429325,10,31.0,-89.99479586491361,0.1,0,0.0,0.0,1.57542003E9,,,,0,,1,,1.57542003E9
Raw,1051654,1261137981000000000,18,,64527,0.8038362742663594,333.564095198152,269.18725907575686,0.0,0,16,220.0,3,17608611,25,20.0,779.6153124247212,0.1,0,0.0,0.0,1.57542003E9,,,,0,,1,,1.57542003E9
Raw,1051654,1261137981000000000,18,,64527,0.8038362742663594,333.564095198152,269.18725907575686,0.0,0,28,220.0,3,18972583,10,29.0,-619.4634836807381,0.1,0,0.0,0.0,1.57542003E9,,,,0,,1,,1.57542003E9
Raw,1051654,1261137981000000000,18,,64527,0.8038362742663594,333.564095198152,269.18725907575686,0.0,0,4,220.0,3,16345733,25,20.0,773.4172451833729,0.1,0,0.0,0.0,1.57542003E9,,,,0,,1,,1.57542003E9
Raw,1051655,1261137981000000000,18,,64527,0.8038362742663594,333.564095198152,269.18725907575686,0.0,0,16,220.0,99,927502332,10,29.0,774.7158214094547,0.1,0,0.0,0.0,1.60143744E9,,,,0,,3,,1.60143744E9
Raw,1051655,1261137981000000000,18,,64527,0.8038362742663594,333.564095198152,269.18725907575686,0.0,0,17,220.0,33,3994208,10,29.0,48.81531579130168,0.1,0,0.0,0.0,1.60424998E9,,,,0,,3,,1.60424998E9
Raw,1051656,1261137981000000000,18,,64527,0.8038362742663594,333.564095198152,269.18725907575686,0.0,0,13,220.0,3,18888967,400,13.0,-599.1706255241297,0.1,0,0.0,0.0,1.57542003E9,,,,0,,1,,1.57542003E9
Raw,1051656,1261137981000000000,18,,64527,0.8038362742663594,333.564095198152,269.18725907575686,0.0,0,7,220.0,17167,129980873062256,25,27.0,172.32283679716076,0.1,0,0.0,0.0,1.56109798E9,,,,0,,5,,1.56109798E9
Raw,1051657,1261137981000000000,18,,64527,0.8038362742663594,333.564095198152,269.18725907575686,0.0,0,18,220.0,33,872202,10,33.0,-503.3448348061237,0.1,0,0.0,0.0,1.60031245E9,,,,0,,3,,1.60031245E9
Raw,1051657,1261137981000000000,18,,64527,0.8038362742663594,333.564095198152,269.18725907575686,0.0,0,9,220.0,3,5817989,10,32.0,649.3539151735604,0.1,0,0.0,0.0,1.57542003E9,,,,0,,1,,1.57542003E9
Raw,1051658,1261137981000000000,18,,64527,0.8038362742663594,333.564095198152,269.18725907575686,0.0,0,23,220.0,3,18914298,25,24.0,734.0454815304838,0.1,0,0.0,0.0,1.57542003E9,,,,0,,1,,1.57542003E9
Raw,1051658,1261137981000000000,18,,64527,0.8038362742663594,333.564095198152,269.18725907575686,0.0,0,9,220.0,32995,43580935925813,10,31.0,-34.6879425960176,0.1,0,0.0,0.0,1.59862502E9,,,,0,,3,,1.59862502E9
Fix,gps,55.770812,37.688827,145.238634,0.000000,4.900000,1577102764000
Raw,1052646,1261137982000000000,18,,64800,0.389924332514056,333.564095198152,268.7344174324818,0.0,0,5,220.0,16399,129981926976677,10,34.0,-41.88630154822022,0.1,0,0.0,0.0,1.57542003E9,,,,0,,1,,1.57542003E9
Raw,1052647,1261137982000000000,18,,64800,0.389924332514056,333.564095198152,268.7344174324818,0.0,0,8,220.0,3,105526,10,36.0,-400.5934117594734,0.1,0,0.0,0.0,1.57542003E9,,,,0,,1,,1.57542003E9
Raw,1052648,1261137982000000000,18,,64800,0.389924332514056,333.564095198152,268.7344174324818,0.0,0,7,220.0,16399,129981931386164,10,32.0,99.14056387497112,0.1,0,0.0,0.0,1.57542003E9,,,,0,,1,,1.57542003E9
Raw,1052648,1261137982000000000,18,,64800,0.389924332514056,333.564095198152,268.7344174324818,0.0,0,30,220.0,3,9580510,10,37.0,-293.96187171223573,0.1,0,0.0,0.0,1.57542003E9,,,,0,,1,,1.57542003E9
Raw,1052649,1261137982000000000,18,,64800,0.389924332514056,333.564095198152,268.7344174324818,0.0,0,27,220.0,16399,129981921429630,10,32.0,-89.65594187029637,0.1,0,0.0,0.0,1.57542003E9,,,,0,,1,,1.57542003E9
Raw,1052649,1261137982000000000,18,,64800,0.389924332514056,333.564095198152,268.7344174324818,0.0,0,16,220.0,3,17606052,25,19.0,780.9257671935484,0.1,0,0.0,0.0,1.57542003E9,,,,0,,1,,1.57542003E9
Raw,1052650,1261137982000000000,18,,64800,0.389924332514056,333.564095198152,268.7344174324818,0.0,0,28,220.0,3,18974648,25,27.0,-618.9722002192866,0.1,0,0.0,0.0,1.57542003E9,,,,0,,1,,1.57542003E9
Raw,1052650,1261137982000000000,18,,64800,0.389924332514056,333.564095198152,268.7344174324818,0.0,0,4,220.0,3,16343213,25,24.0,772.9325414111372,0.1,0,0.0,0.0,1.57542003E9,,,,0,,1,,1.57542003E9
Raw,1052652,1261137982000000000,18,,64800,0.389924332514056,333.564095198152,268.7344174324818,0.0,0,16,220.0,99,1927499748,25,26.0,775.2221208542077,0.1,0,0.0,0.0,1.60143744E9,,,,0,,3,,1.60143744E9
Raw,1052652,1261137982000000000,18,,64800,0.389924332514056,333.564095198152,268.7344174324818,0.0,0,17,220.0,33,3994041,10,29.0,49.34657253707442,0.1,0,0.0,0.0,1.60424998E9,,,,0,,3,,1.60424998E9
Raw,1052653,1261137982000000000,18,,64800,0.389924332514056,333.564095198152,268.7344174324818,0.0,0,13,220.0,3,18890971,400,13.0,-598.9732348476537,0.1,0,0.0,0.0,1.57542003E9,,,,0,,1,,1.57542003E9
Raw,1052654,1261137982000000000,18,,64800,0.389924332514056,333.564095198152,268.7344174324818,0.0,0,7,220.0,17167,129981873061681,10,35.0,172.5323604025414,0.1,0,0.0,0.0,1.56109798E9,,,,0,,5,,1.56109798E9
Raw,1052655,1261137982000000000,18,,64800,0.389924332514056,333.564095198152,268.7344174324818,0.0,0,18,220.0,33,873890,10,34.0,-503.1001432936357,0.1,0,0.0,0.0,1.60031245E9,,,,0,,3,,1.60031245E9
Raw,1052655,1261137982000000000,18,,64800,0.389924332514056,333.564095198152,268.7344174324818,0.0,0,9,220.0,3,5815843,10,37.0,649.4186154508498,0.1,0,0.0,0.0,1.57542003E9,,,,0,,1,,1.57542003E9
Raw,1052656,1261137982000000000,18,,64800,0.389924332514056,333.564095198152,268.7344174324818,0.0,0,23,220.0,3,18911906,25,27.0,734.4567121064756,0.1,0,0.0,0.0,1.57542003E9,,,,0,,1,,1.57542003E9
Raw,1052656,1261137982000000000,18,,64800,0.389924332514056,333.564095198152,268.7344174324818,0.0,0,9,220.0,32995,43581935925930,10,29.0,-34.61312207938441,0.1,0,0.0,0.0,1.59862502E9,,,,0,,3,,1.59862502E9
Fix,gps,55.770812,37.688827,145.238634,0.000000,4.900000,1577102765000
Raw,1053670,1261137983000000000,18,,65072,0.46028168801422,333.564095198152,268.6322332675436,0.0,0,5,220.0,3,6976840,10,29.0,-43.32396364188753,0.1,0,0.0,0.0,1.57542003E9,,,,0,,1,,1.57542003E9
Raw,1053671,1261137983000000000,18,,65072,0.46028168801422,333.564095198152,268.6322332675436,0.0,0,8,220.0,3,106868,10,29.0,-400.67456125980243,0.1,0,0.0,0.0,1.57542003E9,,,,0,,1,,1.57542003E9
Raw,1053672,1261137983000000000,18,,65072,0.46028168801422,333.564095198152,268.6322332675436,0.0,0,7,220.0,16399,129982931385831,10,34.0,99.13288757088594,0.1,0,0.0,0.0,1.57542003E9,,,,0,,1,,1.57542003E9
Raw,1053673,1261137983000000000,18,,65072,0.46028168801422,333.564095198152,268.6322332675436,0.0,0,30,220.0,3,9581491,5,38.0,-294.20093375374563,0.1,0,0.0,0.0,1.57542003E9,,,,0,,1,,1.57542003E9
Raw,1053674,1261137983000000000,18,,65072,0.46028168801422,333.564095198152,268.6322332675436,0.0,0,27,220.0,16399,129982921429927,10,29.0,-89.32147433515638,0.1,0,0.0,0.0,1.57542003E9,,,,0,,1,,1.57542003E9
Raw,1053675,1261137983000000000,18,,65072,0.46028168801422,333.564095198152,268.6322332675436,0.0,0,16,220.0,3,17603422,25,18.0,781.0420083696954,0.1,0,0.0,0.0,1.57542003E9,,,,0,,1,,1.57542003E9
Raw,1053675,1261137983000000000,18,,65072,0.46028168801422,333.564095198152,268.6322332675436,0.0,0,28,220.0,3,18976716,25,23.0,-619.3593052681535,0.1,0,0.0,0.0,1.57542003E9,,,,0,,1,,1.57542003E9
Raw,1053676,1261137983000000000,18,,65072,0.46028168801422,333.564095198152,268.6322332675436,0.0,0,4,220.0,3,16340683,10,28.0,773.1277388578746,0.1,0,0.0,0.0,1.57542003E9,,,,0,,1,,1.57542003E9
Raw,1053676,1261137983000000000,18,,65072,0.46028168801422,333.564095198152,268.6322332675436,0.0,0,16,220.0,99,927497168,10,32.0,775.0840391874568,0.1,0,0.0,0.0,1.60143744E9,,,,0,,3,,1.60143744E9
Raw,1053676,1261137983000000000,18,,65072,0.46028168801422,333.564095198152,268.6322332675436,0.0,0,17,220.0,33,3993863,25,27.0,49.642353319856,0.1,0,0.0,0.0,1.60424998E9,,,,0,,3,,1.60424998E9
Raw,1053677,1261137983000000000,18,,65072,0.46028168801422,333.564095198152,268.6322332675436,0.0,0,13,220.0,3,18892976,400,14.0,-598.9523991651367,0.1,0,0.0,0.0,1.57542003E9,,,,0,,1,,1.57542003E9
Raw,1053677,1261137983000000000,18,,65072,0.46028168801422,333.564095198152,268.6322332675436,0.0,0,7,220.0,17167,129982873061104,10,34.0,172.92042172799995,0.1,0,0.0,0.0,1.56109798E9,,,,0,,5,,1.56109798E9
Raw,1053679,1261137983000000000,18,,65072,0.46028168801422,333.564095198152,268.6322332675436,0.0,0,18,220.0,99,920875572,10,31.0,-502.84681561011877,0.1,0,0.0,0.0,1.60031245E9,,,,0,,3,,1.60031245E9
Raw,1053680,1261137983000000000,18,,65072,0.46028168801422,333.564095198152,268.6322332675436,0.0,0,9,220.0,3,5813695,10,30.0,649.408745917026,0.1,0,0.0,0.0,1.57542003E9,,,,0,,1,,1.57542003E9
Raw,1053680,1261137983000000000,18,,65072,0.46028168801422,333.564095198152,268.6322332675436,0.0,0,23,220.0,3,18909482,10,31.0,735.0324349128641,0.1,0,0.0,0.0,1.57542003E9,,,,0,,1,,1.57542003E9
Raw,1053681,1261137983000000000,18,,65072,0.46028168801422,333.564095198152,268.6322332675436,0.0,0,9,220.0,32995,43582935926042,10,31.0,-34.664920898592,0.1,0,0.0,0.0,1.59862502E9,,,,0,,3,,1.59862502E9
Fix,gps,55.770812,37.688827,145.238634,0.000000,4.900000,1577102766000
Raw,1054660,1261137984000000000,18,,65342,0.16537008171872003,333.564095198152,267.96228809253194,0.0,0,5,220.0,3,6976974,10,30.0,-41.317158431047574,0.1,0,0.0,0.0,1.57542003E9,,,,0,,1,,1.57542003E9
Raw,1054660,1261137984000000000,18,,65342,0.16537008171872003,333.564095198152,267.96228809253194,0.0,0,8,220.0,3,108202,10,31.0,-400.6548221921548,0.1,0,0.0,0.0,1.57542003E9,,,,0,,1,,1.57542003E9
Raw,1054661,1261137984000000000,18,,65342,0.16537008171872003,333.564095198152,267.96228809253194,0.0,0,7,220.0,16399,129983931385506,10,31.0,99.11534173297696,0.1,0,0.0,0.0,1.57542003E9,,,,0,,1,,1.57542003E9
Raw,1054661,1261137984000000000,18,,65342,0.16537008171872003,333.564095198152,267.96228809253194,0.0,0,30,220.0,3,9582470,5,38.0,-294.24150850391015,0.1,0,0.0,0.0,1.57542003E9,,,,0,,1,,1.57542003E9
Raw,1054662,1261137984000000000,18,,65342,0.16537008171872003,333.564095198152,267.96228809253194,0.0,0,27,220.0,16399,129983921430240,10,28.0,-89.70090307993814,0.1,0,0.0,0.0,1.57542003E9,,,,0,,1,,1.57542003E9
Raw,1054663,1261137984000000000,18,,65342,0.16537008171872003,333.564095198152,267.96228809253194,0.0,0,16,220.0,3,17600847,400,16.0,777.4681405106094,0.1,0,0.0,0.0,1.57542003E9,,,,0,,1,,1.57542003E9
Raw,1054663,1261137984000000000,18,,65342,0.16537008171872003,333.564095198152,267.96228809253194,0.0,0,28,220.0,3,18978787,25,25.0,-619.990955432877,0.1,0,0.0,0.0,1.57542003E9,,,,0,,1,,1.57542003E9
Raw,1054664,1261137984000000000,18,,65342,0.16537008171872003,333.564095198152,267.96228809253194,0.0,0,4,220.0,3,16338128,25,25.0,772.8020442416891,0.1,0,0.0,0.0,1.57542003E9,,,,0,,1,,1.57542003E9
Raw,1054665,1261137984000000000,18,,65342,0.16537008171872003,333.564095198152,267.96228809253194,0.0,0,16,220.0,99,1927494585,25,22.0,775.1041760971913,0.1,0,0.0,0.0,1.60143744E9,,,,0,,3,,1.60143744E9
Raw,1054669,1261137984000000000,18,,65342,0.16537008171872003,333.564095198152,267.96228809253194,0.0,0,17,220.0,33,3993703,25,24.0,50.182225039884514,0.1,0,0.0,0.0,1.60424998E9,,,,0,,3,,1.60424998E9
Raw,1054670,1261137984000000000,18,,65342,0.16537008171872003,333.564095198152,267.96228809253194,0.0,0,13,220.0,3,18894998,400,17.0,-598.6606996098999,0.1,0,0.0,0.0,1.57542003E9,,,,0,,1,,1.57542003E9
Raw,1054671,1261137984000000000,18,,65342,0.16537008171872003,333.564095198152,267.96228809253194,0.0,0,7,220.0,17167,129983873060526,10,29.0,172.5810525080172,0.1,0,0.0,0.0,1.56109798E9,,,,0,,5,,1.56109798E9
Raw,1054672,1261137984000000000,18,,65342,0.16537008171872003,333.564095198152,267.96228809253194,0.0,0,18,220.0,99,1920877240,10,34.0,-503.0368113727565,0.1,0,0.0,0.0,1.60031245E9,,,,0,,3,,1.60031245E9
Raw,1054672,1261137984000000000,18,,65342,0.16537008171872003,333.564095198152,267.96228809253194,0.0,0,9,220.0,3,5811540,10,33.0,649.3297896464355,0.1,0,0.0,0.0,1.57542003E9,,,,0,,1,,1.57542003E9
Raw,1054672,1261137984000000000,18,,65342,0.16537008171872003,333.564095198152,267.96228809253194,0.0,0,23,220.0,3,18907067,10,30.0,735.0982318050228,0.1,0,0.0,0.0,1.57542003E9,,,,0,,1,,1.57542003E9
Raw,1054673,1261137984000000000,18,,65342,0.16537008171872003,333.564095198152,267.96228809253194,0.0,0,9,220.0,32995,43583935926159,10,32.0,-34.785784810076386,0.1,0,0.0,0.0,1.59862502E9,,,,0,,3,,1.59862502E9
Fix,gps,55.770812,37.688827,145.238634,0.000000,4.900000,1577102767000
Raw,1055659,1261137985000000000,18,,65611,0.227352644506027,333.564095198152,267.4047227186903,0.0,0,5,220.0,16399,129984926977107,5,39.0,-40.88509217253886,0.1,0,0.0,0.0,1.57542003E9,,,,0,,1,,1.57542003E9
Raw,1055660,1261137985000000000,18,,65611,0.227352644506027,333.564095198152,267.4047227186903,0.0,0,8,220.0,3,109538,25,26.0,-400.52322840783745,0.1,0,0.0,0.0,1.57542003E9,,,,0,,1,,1.57542003E9
Raw,1055661,1261137985000000000,18,,65611,0.227352644506027,333.564095198152,267.4047227186903,0.0,0,7,220.0,16399,129984931385176,10,36.0,98.94207658362575,0.1,0,0.0,0.0,1.57542003E9,,,,0,,1,,1.57542003E9
Raw,1055663,1261137985000000000,18,,65611,0.227352644506027,333.564095198152,267.4047227186903,0.0,0,30,220.0,3,9583452,10,36.0,-294.47179762646556,0.1,0,0.0,0.0,1.57542003E9,,,,0,,1,,1.57542003E9
Raw,1055663,1261137985000000000,18,,65611,0.227352644506027,333.564095198152,267.4047227186903,0.0,0,27,220.0,16399,129984921430537,10,33.0,-89.63620280264877,0.1,0,0.0,0.0,1.57542003E9,,,,0,,1,,1.57542003E9
Raw,1055664,1261137985000000000,18,,65611,0.227352644506027,333.564095198152,267.4047227186903,0.0,0,16,220.0,3,17598298,400,15.0,777.7839655929711,0.1,0,0.0,0.0,1.57542003E9,,,,0,,1,,1.57542003E9
Raw,1055665,1261137985000000000,18,,65611,0.227352644506027,333.564095198152,267.4047227186903,0.0,0,28,220.0,3,18980845,25,27.0,-620.6313785165548,0.1,0,0.0,0.0,1.57542003E9,,,,0,,1,,1.57542003E9
Raw,1055665,1261137985000000000,18,,65611,0.227352644506027,333.564095198152,267.4047227186903,0.0,0,4,220.0,3,16335592,25,22.0,774.114692240255,0.1,0,0.0,0.0,1.57542003E9,,,,0,,1,,1.57542003E9
Raw,1055666,1261137985000000000,18,,65611,0.227352644506027,333.564095198152,267.4047227186903,0.0,0,16,220.0,99,927492004,10,32.0,774.8539030762055,0.1,0,0.0,0.0,1.60143744E9,,,,0,,3,,1.60143744E9
Raw,1055666,1261137985000000000,18,,65611,0.227352644506027,333.564095198152,267.4047227186903,0.0,0,17,220.0,33,3993536,25,26.0,49.64522497794126,0.1,0,0.0,0.0,1.60424998E9,,,,0,,3,,1.60424998E9
Raw,1055667,1261137985000000000,18,,65611,0.227352644506027,333.564095198152,267.4047227186903,0.0,0,13,220.0,3,18897028,25,19.0,-598.706757434411,0.1,0,0.0,0.0,1.57542003E9,,,,0,,1,,1.57542003E9
Raw,1055668,1261137985000000000,18,,65611,0.227352644506027,333.564095198152,267.4047227186903,0.0,0,7,220.0,17167,129984873059953,10,31.0,172.2121729210794,0.1,0,0.0,0.0,1.56109798E9,,,,0,,5,,1.56109798E9
Raw,1055668,1261137985000000000,18,,65611,0.227352644506027,333.564095198152,267.4047227186903,0.0,0,18,220.0,99,920878916,10,33.0,-503.2642305431865,0.1,0,0.0,0.0,1.60031245E9,,,,0,,3,,1.60031245E9
Raw,1055669,1261137985000000000,18,,65611,0.227352644506027,333.564095198152,267.4047227186903,0.0,0,9,220.0,3,5809380,10,32.0,649.1861330985557,0.1,0,0.0,0.0,1.57542003E9,,,,0,,1,,1.57542003E9
Raw,1055670,1261137985000000000,18,,65611,0.227352644506027,333.564095198152,267.4047227186903,0.0,0,23,220.0,3,18904645,10,28.0,733.5169131634757,0.1,0,0.0,0.0,1.57542003E9,,,,0,,1,,1.57542003E9
Raw,1055670,1261137985000000000,18,,65611,0.227352644506027,333.564095198152,267.4047227186903,0.0,0,9,220.0,32995,43584935926276,10,32.0,-34.785784810076386,0.1,0,0.0,0.0,1.59862502E9,,,,0,,3,,1.59862502E9
Fix,gps,55.770812,37.688827,145.238634,0.000000,4.900000,1577102768000
Raw,1056687,1261137986000000000,18,,65880,0.40236350409395527,333.564095198152,266.1576614436357,0.0,0,5,220.0,16399,129985926977238,10,37.0,-41.13292713300325,0.1,0,0.0,0.0,1.57542003E9,,,,0,,1,,1.57542003E9
Raw,1056688,1261137986000000000,18,,65880,0.40236350409395527,333.564095198152,266.1576614436357,0.0,0,8,220.0,3,110867,25,27.0,-400.7886092062108,0.1,0,0.0,0.0,1.57542003E9,,,,0,,1,,1.57542003E9
Raw,1056688,1261137986000000000,18,,65880,0.40236350409395527,333.564095198152,266.1576614436357,0.0,0,7,220.0,16399,129985931384847,10,37.0,98.59993274440058,0.1,0,0.0,0.0,1.57542003E9,,,,0,,1,,1.57542003E9
Raw,1056688,1261137986000000000,18,,65880,0.40236350409395527,333.564095198152,266.1576614436357,0.0,0,30,220.0,3,9584434,5,38.0,-294.70866643823683,0.1,0,0.0,0.0,1.57542003E9,,,,0,,1,,1.57542003E9
Raw,1056690,1261137986000000000,18,,65880,0.40236350409395527,333.564095198152,266.1576614436357,0.0,0,27,220.0,3,1430837,10,29.0,-90.07594536524266,0.1,0,0.0,0.0,1.57542003E9,,,,0,,1,,1.57542003E9
Raw,1056690,1261137986000000000,18,,65880,0.40236350409395527,333.564095198152,266.1576614436357,0.0,0,16,220.0,3,17595704,400,15.0,776.9275093800388,0.1,0,0.0,0.0,1.57542003E9,,,,0,,1,,1.57542003E9
Raw,1056691,1261137986000000000,18,,65880,0.40236350409395527,333.564095198152,266.1576614436357,0.0,0,28,220.0,3,18982916,25,27.0,-620.9000491595361,0.1,0,0.0,0.0,1.57542003E9,,,,0,,1,,1.57542003E9
Raw,1056693,1261137986000000000,18,,65880,0.40236350409395527,333.564095198152,266.1576614436357,0.0,0,4,220.0,3,16333055,25,20.0,771.3172277086414,0.1,0,0.0,0.0,1.57542003E9,,,,0,,1,,1.57542003E9
Raw,1056694,1261137986000000000,18,,65880,0.40236350409395527,333.564095198152,266.1576614436357,0.0,0,16,220.0,99,1927489417,10,28.0,774.3303434231088,0.1,0,0.0,0.0,1.60143744E9,,,,0,,3,,1.60143744E9
Raw,1056695,1261137986000000000,18,,65880,0.40236350409395527,333.564095198152,266.1576614436357,0.0,0,17,220.0,33,3993364,10,29.0,49.248936162175646,0.1,0,0.0,0.0,1.60424998E9,,,,0,,3,,1.60424998E9
Raw,1056695,1261137986000000000,18,,65880,0.40236350409395527,333.564095198152,266.1576614436357,0.0,0,13,220.0,3,18899042,25,20.0,-599.1618526051752,0.1,0,0.0,0.0,1.57542003E9,,,,0,,1,,1.57542003E9
Raw,1056695,1261137986000000000,18,,65880,0.40236350409395527,333.564095198152,266.1576614436357,0.0,0,7,220.0,17167,129985873059381,25,22.0,172.1516766688216,0.1,0,0.0,0.0,1.56109798E9,,,,0,,5,,1.56109798E9
Raw,1056696,1261137986000000000,18,,65880,0.40236350409395527,333.564095198152,266.1576614436357,0.0,0,18,220.0,99,1920880592,10,33.0,-503.2296858590705,0.1,0,0.0,0.0,1.60031245E9,,,,0,,3,,1.60031245E9
Raw,1056696,1261137986000000000,18,,65880,0.40236350409395527,333.564095198152,266.1576614436357,0.0,0,9,220.0,3,5807224,10,29.0,649.0260273276363,0.1,0,0.0,0.0,1.57542003E9,,,,0,,1,,1.57542003E9
Raw,1056697,1261137986000000000,18,,65880,0.40236350409395527,333.564095198152,266.1576614436357,0.0,0,23,220.0,3,18902236,25,22.0,733.7691345834173,0.1,0,0.0,0.0,1.57542003E9,,,,0,,1,,1.57542003E9
Raw,1056697,1261137986000000000,18,,65880,0.40236350409395527,333.564095198152,266.1576614436357,0.0,0,9,220.0,32995,43585935926388,10,32.0,-34.89801558502617,0.1,0,0.0,0.0,1.59862502E9,,,,0,,3,,1.59862502E9
Fix,gps,55.770812,37.688827,145.238634,0.000000,4.900000,1577102769000
